[
  {
    "code": "AAA",
    "name": "Anaa",
    "cityCode": "AAA",
    "countryCode": "PF",
    "latitude": -17.3525,
    "longitude": -145.51,
    "timeZoneId": "Pacific/Tahiti"
  },
  {
    "code": "AAB",
    "name": "Arrabury Airport",
    "cityCode": "AAB",
    "countryCode": "AU",
    "latitude": -26.6911,
    "longitude": 141.0472,
    "timeZoneId": "Australia/Brisbane"
  },
  {
    "code": "AAC",
    "name": "El Arish International",
    "cityCode": "AAC",
    "countryCode": "EG",
    "latitude": 31.0733,
    "longitude": 33.8358,
    "timeZoneId": "Africa/Cairo"
  },
  {
    "code": "AAD",
    "name": "Adado Airport",
    "cityCode": "AAD",
    "countryCode": "SO",
    "latitude": 6.0961,
    "longitude": 46.6375,
    "timeZoneId": "Africa/Mogadishu"
  },
  {
    "code": "AAE",
    "name": "Annaba Rabah Bitat",
    "cityCode": "AAE",
    "countryCode": "DZ",
    "latitude": 36.8222,
    "longitude": 7.8092,
    "timeZoneId": "Africa/Algiers"
  },
  {
    "code": "AAF",
    "name": "Apalachicola",
    "cityCode": "AAF",
    "countryCode": "US",
    "latitude": 29.7333,
    "longitude": -85.0333,
    "timeZoneId": "America/New_York"
  },
  {
    "code": "AAG",
    "name": "Arapoti Avelino Vieira",
    "cityCode": "AAG",
    "countryCode": "BR",
    "latitude": -24.1036,
    "longitude": -49.79,
    "timeZoneId": "America/Sao_Paulo"
  },
  {
    "code": "AAH",
    "name": "Aachen Merzbrueck",
    "cityCode": "AAH",
    "countryCode": "DE",
    "latitude": 50.8231,
    "longitude": 6.1864,
    "timeZoneId": "Europe/Berlin"
  },
  {
    "code": "AAI",
    "name": "Arraias Airport",
    "cityCode": "AAI",
    "countryCode": "BR",
    "latitude": -12.9167,
    "longitude": -46.9333,
    "timeZoneId": "America/Sao_Paulo"
  },
  {
    "code": "AAJ",
    "name": "Awaradam Cajana",
    "cityCode": "AAJ",
    "countryCode": "SR",
    "latitude": 3.9,
    "longitude": -55.3667,
    "timeZoneId": "America/Paramaribo"
  },
  {
    "code": "AAK",
    "name": "Aranuka Airport",
    "cityCode": "AAK",
    "countryCode": "KI",
    "latitude": 0.1853,
    "longitude": 173.6369,
    "timeZoneId": "Pacific/Tarawa"
  },
  {
    "code": "AAL",
    "name": "Aalborg",
    "cityCode": "AAL",
    "countryCode": "DK",
    "latitude": 57.0928,
    "longitude": 9.8492,
    "timeZoneId": "Europe/Copenhagen"
  },
  {
    "code": "AAM",
    "name": "Mala Mala Airport",
    "cityCode": "AAM",
    "countryCode": "ZA",
    "latitude": -24.8181,
    "longitude": 31.5447,
    "timeZoneId": "Africa/Johannesburg"
  },
  {
    "code": "AAN",
    "name": "Al Ain International",
    "cityCode": "AAN",
    "countryCode": "AE",
    "latitude": 24.2617,
    "longitude": 55.6092,
    "timeZoneId": "Asia/Dubai"
  },
  {
    "code": "AAO",
    "name": "Anaco",
    "cityCode": "AAO",
    "countryCode": "VE",
    "latitude": 9.4167,
    "longitude": -64.4667,
    "timeZoneId": "America/Caracas"
  },
  {
    "code": "AAQ",
    "name": "Anapa",
    "cityCode": "AAQ",
    "countryCode": "RU",
    "latitude": 45.0022,
    "longitude": 37.3472,
    "timeZoneId": "Europe/Moscow"
  },
  {
    "code": "AAR",
    "name": "Aarhus Tirstrup",
    "cityCode": "AAR",
    "countryCode": "DK",
    "latitude": 56.3039,
    "longitude": 10.6194,
    "timeZoneId": "Europe/Copenhagen"
  },
  {
    "code": "AAS",
    "name": "Apalapsili Airport",
    "cityCode": "AAS",
    "countryCode": "ID",
    "latitude": -3.9167,
    "longitude": 139.25,
    "timeZoneId": "Asia/Jayapura"
  },
  {
    "code": "AAT",
    "name": "Altay Airport",
    "cityCode": "AAT",
    "countryCode": "CN",
    "latitude": 47.7506,
    "longitude": 88.0858,
    "timeZoneId": "Asia/Shanghai"
  },
  {
    "code": "AAU",
    "name": "Asau",
    "cityCode": "AAU",
    "countryCode": "WS",
    "latitude": -13.4583,
    "longitude": -172.6,
    "timeZoneId": "Pacific/Apia"
  },
  {
    "code": "AAV",
    "name": "Surallah Allah Valley",
    "cityCode": "AAV",
    "countryCode": "PH",
    "latitude": 6.3333,
    "longitude": 124.7667,
    "timeZoneId": "Asia/Manila"
  },
  {
    "code": "AAW",
    "name": "Aachen Bus station",
    "cityCode": "AAH",
    "countryCode": "DE",
    "latitude": 50.7825,
    "longitude": 6.0717,
    "timeZoneId": "Europe/Berlin"
  },
  {
    "code": "AAX",
    "name": "Araxa",
    "cityCode": "AAX",
    "countryCode": "BR",
    "latitude": -19.5633,
    "longitude": -46.9603,
    "timeZoneId": "America/Sao_Paulo"
  },
  {
    "code": "AAZ",
    "name": "Quetzaltenango",
    "cityCode": "AAZ",
    "countryCode": "GT",
    "latitude": 14.8639,
    "longitude": -91.5203,
    "timeZoneId": "America/Guatemala"
  },
  {
    "code": "ABA",
    "name": "Abakan Airport",
    "cityCode": "ABA",
    "countryCode": "RU",
    "latitude": 53.74,
    "longitude": 91.385,
    "timeZoneId": "Asia/Tomsk"
  },
  {
    "code": "ABC",
    "name": "Albacete Airport",
    "cityCode": "ABC",
    "countryCode": "ES",
    "latitude": 38.9486,
    "longitude": -1.8636,
    "timeZoneId": "Europe/Madrid"
  },
  {
    "code": "ABD",
    "name": "Abadan Airport",
    "cityCode": "ABD",
    "countryCode": "IR",
    "latitude": 30.3711,
    "longitude": 48.2283,
    "timeZoneId": "Asia/Tehran"
  },
  {
    "code": "ABE",
    "name": "Allentown/Bethlehem",
    "cityCode": "ABE",
    "countryCode": "US",
    "latitude": 40.6522,
    "longitude": -75.4408,
    "timeZoneId": "America/New_York"
  },
  {
    "code": "ABF",
    "name": "Abaiang",
    "cityCode": "ABF",
    "countryCode": "KI",
    "latitude": 1.7989,
    "longitude": 173.0406,
    "timeZoneId": "Pacific/Tarawa"
  },
  {
    "code": "ABG",
    "name": "Abingdon Downs",
    "cityCode": "ABG",
    "countryCode": "AU",
    "latitude": -17.6667,
    "longitude": 143.2,
    "timeZoneId": "Australia/Brisbane"
  },
  {
    "code": "ABH",
    "name": "Alpha",
    "cityCode": "ABH",
    "countryCode": "AU",
    "latitude": -23.7,
    "longitude": 146.5833,
    "timeZoneId": "Australia/Brisbane"
  },
  {
    "code": "ABI",
    "name": "Abilene",
    "cityCode": "ABI",
    "countryCode": "US",
    "latitude": 32.4114,
    "longitude": -99.6819,
    "timeZoneId": "America/Chicago"
  },
  {
    "code": "ABJ",
    "name": "Abidjan",
    "cityCode": "ABJ",
    "countryCode": "CI",
    "latitude": 5.2614,
    "longitude": -3.9264,
    "timeZoneId": "Africa/Abidjan"
  },
  {
    "code": "ABK",
    "name": "Kabri Dar",
    "cityCode": "ABK",
    "countryCode": "ET",
    "latitude": 6.7339,
    "longitude": 44.2553,
    "timeZoneId": "Africa/Addis_Ababa"
  },
  {
    "code": "ABL",
    "name": "Ambler",
    "cityCode": "ABL",
    "countryCode": "US",
    "latitude": 67.1072,
    "longitude": -157.8533,
    "timeZoneId": "America/Anchorage"
  },
  {
    "code": "ABM",
    "name": "Bamaga Northern Peninsula",
    "cityCode": "ABM",
    "countryCode": "AU",
    "latitude": -10.9508,
    "longitude": 142.4594,
    "timeZoneId": "Australia/Brisbane"
  },
  {
    "code": "ABN",
    "name": "Albina",
    "cityCode": "ABN",
    "countryCode": "SR",
    "latitude": 5.5167,
    "longitude": -54.05,
    "timeZoneId": "America/Paramaribo"
  },
  {
    "code": "ABO",
    "name": "Aboisso Airport",
    "cityCode": "ABO",
    "countryCode": "CI",
    "latitude": 5.4667,
    "longitude": -3.2,
    "timeZoneId": "Africa/Abidjan"
  },
  {
    "code": "ABP",
    "name": "Atkamba Airport",
    "cityCode": "ABP",
    "countryCode": "PG",
    "latitude": -6.0667,
    "longitude": 141.1,
    "timeZoneId": "Pacific/Port_Moresby"
  },
  {
    "code": "ABQ",
    "name": "Albuquerque",
    "cityCode": "ABQ",
    "countryCode": "US",
    "latitude": 35.0406,
    "longitude": -106.6094,
    "timeZoneId": "America/Denver"
  },
  {
    "code": "ABR",
    "name": "Aberdeen (US)",
    "cityCode": "ABR",
    "countryCode": "US",
    "latitude": 45.4536,
    "longitude": -98.4256,
    "timeZoneId": "America/Chicago"
  },
  {
    "code": "ABS",
    "name": "Abu Simbel Airport",
    "cityCode": "ABS",
    "countryCode": "EG",
    "latitude": 22.3758,
    "longitude": 31.6117,
    "timeZoneId": "Africa/Cairo"
  },
  {
    "code": "ABT",
    "name": "Al Baha Al-Aqiq",
    "cityCode": "ABT",
    "countryCode": "SA",
    "latitude": 20.2961,
    "longitude": 41.6342,
    "timeZoneId": "Asia/Riyadh"
  },
  {
    "code": "ABU",
    "name": "Atambua Haliwen",
    "cityCode": "ABU",
    "countryCode": "ID",
    "latitude": -9.075,
    "longitude": 124.9039,
    "timeZoneId": "Asia/Makassar"
  },
  {
    "code": "ABV",
    "name": "Abuja",
    "cityCode": "ABV",
    "countryCode": "NG",
    "latitude": 9.0067,
    "longitude": 7.2631,
    "timeZoneId": "Africa/Lagos"
  },
  {
    "code": "ABW",
    "name": "Abau Airport",
    "cityCode": "ABW",
    "countryCode": "PG",
    "latitude": -10.1667,
    "longitude": 148.7,
    "timeZoneId": "Pacific/Port_Moresby"
  },
  {
    "code": "ABX",
    "name": "Albury",
    "cityCode": "ABX",
    "countryCode": "AU",
    "latitude": -36.0678,
    "longitude": 146.9581,
    "timeZoneId": "Australia/Sydney"
  },
  {
    "code": "ABY",
    "name": "Albany (US)",
    "cityCode": "ABY",
    "countryCode": "US",
    "latitude": 31.5356,
    "longitude": -84.1944,
    "timeZoneId": "America/New_York"
  },
  {
    "code": "ABZ",
    "name": "Aberdeen (GB)",
    "cityCode": "ABZ",
    "countryCode": "GB",
    "latitude": 57.2042,
    "longitude": -2.2003,
    "timeZoneId": "Europe/London"
  },
  {
    "code": "ACA",
    "name": "Acapulco",
    "cityCode": "ACA",
    "countryCode": "MX",
    "latitude": 16.7569,
    "longitude": -99.7539,
    "timeZoneId": "America/Mexico_City"
  },
  {
    "code": "ACB",
    "name": "Bellaire Antrim County",
    "cityCode": "ACB",
    "countryCode": "US",
    "latitude": 44.9833,
    "longitude": -85.2028,
    "timeZoneId": "America/New_York"
  },
  {
    "code": "ACC",
    "name": "Accra",
    "cityCode": "ACC",
    "countryCode": "GH",
    "latitude": 5.6053,
    "longitude": -0.1667,
    "timeZoneId": "Africa/Accra"
  },
  {
    "code": "ACD",
    "name": "Acandi",
    "cityCode": "ACD",
    "countryCode": "CO",
    "latitude": 8.5167,
    "longitude": -77.3,
    "timeZoneId": "America/Bogota"
  },
  {
    "code": "ACE",
    "name": "Lanzarote",
    "cityCode": "ACE",
    "countryCode": "ES",
    "latitude": 28.9456,
    "longitude": -13.6053,
    "timeZoneId": "Atlantic/Canary"
  },
  {
    "code": "ACF",
    "name": "Alaer Talimu",
    "cityCode": "ACF",
    "countryCode": "CN",
    "latitude": 40.4494,
    "longitude": 81.2675,
    "timeZoneId": "Asia/Shanghai"
  },
  {
    "code": "ACH",
    "name": "Altenrhein",
    "cityCode": "ACH",
    "countryCode": "CH",
    "latitude": 47.485,
    "longitude": 9.5608,
    "timeZoneId": "Europe/Zurich"
  },
  {
    "code": "ACI",
    "name": "Alderney Airport",
    "cityCode": "ACI",
    "countryCode": "GB",
    "latitude": 49.7069,
    "longitude": -2.2156,
    "timeZoneId": "Europe/London"
  },
  {
    "code": "ACJ",
    "name": "Anuradhapura Airport",
    "cityCode": "ACJ",
    "countryCode": "LK",
    "latitude": 8.3,
    "longitude": 80.4267,
    "timeZoneId": "Asia/Colombo"
  },
  {
    "code": "ACK",
    "name": "Nantucket",
    "cityCode": "ACK",
    "countryCode": "US",
    "latitude": 41.2531,
    "longitude": -70.0603,
    "timeZoneId": "America/New_York"
  },
  {
    "code": "ACL",
    "name": "Aguaclara Airport",
    "cityCode": "ACL",
    "countryCode": "CO",
    "latitude": 4.75,
    "longitude": -73.0,
    "timeZoneId": "America/Bogota"
  },
  {
    "code": "ACM",
    "name": "Arica Airport",
    "cityCode": "ACM",
    "countryCode": "CO",
    "latitude": -2.1333,
    "longitude": -71.7833,
    "timeZoneId": "America/Bogota"
  },
  {
    "code": "ACN",
    "name": "Ciudad Acuna International",
    "cityCode": "ACN",
    "countryCode": "MX",
    "latitude": 29.3331,
    "longitude": -101.0992,
    "timeZoneId": "America/Matamoros"
  },
  {
    "code": "ACO",
    "name": "Cobano Airport",
    "cityCode": "ACO",
    "countryCode": "CR",
    "latitude": 9.6919,
    "longitude": -85.0967,
    "timeZoneId": "America/Costa_Rica"
  },
  {
    "code": "ACP",
    "name": "Maragheh Sahand",
    "cityCode": "ACP",
    "countryCode": "IR",
    "latitude": 37.3481,
    "longitude": 46.1331,
    "timeZoneId": "Asia/Tehran"
  },
  {
    "code": "ACQ",
    "name": "Estacion De Alicante Bus Station",
    "cityCode": "ALC",
    "countryCode": "ES",
    "latitude": 38.3375,
    "longitude": -0.4917,
    "timeZoneId": "Europe/Madrid"
  },
  {
    "code": "ACR",
    "name": "Araracuara",
    "cityCode": "ACR",
    "countryCode": "CO",
    "latitude": -0.6008,
    "longitude": -72.3964,
    "timeZoneId": "America/Bogota"
  },
  {
    "code": "ACS",
    "name": "Achinsk Airport",
    "cityCode": "ACS",
    "countryCode": "RU",
    "latitude": 56.2697,
    "longitude": 90.5719,
    "timeZoneId": "Asia/Tomsk"
  },
  {
    "code": "ACT",
    "name": "Waco",
    "cityCode": "ACT",
    "countryCode": "US",
    "latitude": 31.6114,
    "longitude": -97.2306,
    "timeZoneId": "America/Chicago"
  },
  {
    "code": "ACU",
    "name": "Achutupo",
    "cityCode": "ACU",
    "countryCode": "PA",
    "latitude": 8.4333,
    "longitude": -77.9667,
    "timeZoneId": "America/Panama"
  },
  {
    "code": "ACV",
    "name": "Arcata/Eureka",
    "cityCode": "ACV",
    "countryCode": "US",
    "latitude": 40.9781,
    "longitude": -124.1086,
    "timeZoneId": "America/Los_Angeles"
  },
  {
    "code": "ACX",
    "name": "Xingyi",
    "cityCode": "ACX",
    "countryCode": "CN",
    "latitude": 25.0856,
    "longitude": 104.9594,
    "timeZoneId": "Asia/Shanghai"
  },
  {
    "code": "ACY",
    "name": "Atlantic City",
    "cityCode": "ACY",
    "countryCode": "US",
    "latitude": 39.4575,
    "longitude": -74.5772,
    "timeZoneId": "America/New_York"
  },
  {
    "code": "ACZ",
    "name": "Zabol",
    "cityCode": "ACZ",
    "countryCode": "IR",
    "latitude": 31.0983,
    "longitude": 61.5439,
    "timeZoneId": "Asia/Tehran"
  },
  {
    "code": "ADA",
    "name": "Adana",
    "cityCode": "ADA",
    "countryCode": "TR",
    "latitude": 36.9822,
    "longitude": 35.2803,
    "timeZoneId": "Europe/Istanbul"
  },
  {
    "code": "ADB",
    "name": "Izmir",
    "cityCode": "IZM",
    "countryCode": "TR",
    "latitude": 38.2925,
    "longitude": 27.1569,
    "timeZoneId": "Europe/Istanbul"
  },
  {
    "code": "ADC",
    "name": "Andakombe",
    "cityCode": "ADC",
    "countryCode": "PG",
    "latitude": -7.15,
    "longitude": 145.75,
    "timeZoneId": "Pacific/Port_Moresby"
  },
  {
    "code": "ADD",
    "name": "Addis Ababa",
    "cityCode": "ADD",
    "countryCode": "ET",
    "latitude": 8.9778,
    "longitude": 38.7994,
    "timeZoneId": "Africa/Addis_Ababa"
  },
  {
    "code": "ADE",
    "name": "Aden International",
    "cityCode": "ADE",
    "countryCode": "YE",
    "latitude": 12.8294,
    "longitude": 45.0289,
    "timeZoneId": "Asia/Aden"
  },
  {
    "code": "ADF",
    "name": "Adiyaman",
    "cityCode": "ADF",
    "countryCode": "TR",
    "latitude": 37.7314,
    "longitude": 38.4689,
    "timeZoneId": "Europe/Istanbul"
  },
  {
    "code": "ADG",
    "name": "Adrian Lenawee County",
    "cityCode": "ADG",
    "countryCode": "US",
    "latitude": 41.9,
    "longitude": -84.0333,
    "timeZoneId": "America/New_York"
  },
  {
    "code": "ADH",
    "name": "Aldan",
    "cityCode": "ADH",
    "countryCode": "RU",
    "latitude": 58.6028,
    "longitude": 125.4067,
    "timeZoneId": "Asia/Yakutsk"
  },
  {
    "code": "ADI",
    "name": "Arandis",
    "cityCode": "ADI",
    "countryCode": "NA",
    "latitude": -22.4,
    "longitude": 15.0,
    "timeZoneId": "Africa/Windhoek"
  },
  {
    "code": "ADJ",
    "name": "Amman Marka Intl Airport",
    "cityCode": "AMM",
    "countryCode": "JO",
    "latitude": 31.9728,
    "longitude": 35.9917,
    "timeZoneId": "Asia/Amman"
  },
  {
    "code": "ADK",
    "name": "Adak Island",
    "cityCode": "ADK",
    "countryCode": "US",
    "latitude": 51.8811,
    "longitude": -176.6483,
    "timeZoneId": "America/Adak"
  },
  {
    "code": "ADL",
    "name": "Adelaide",
    "cityCode": "ADL",
    "countryCode": "AU",
    "latitude": -34.945,
    "longitude": 138.5306,
    "timeZoneId": "Australia/Adelaide"
  },
  {
    "code": "ADN",
    "name": "Andes",
    "cityCode": "ADN",
    "countryCode": "CO",
    "latitude": 5.6667,
    "longitude": -75.8833,
    "timeZoneId": "America/Bogota"
  },
  {
    "code": "ADO",
    "name": "Andamooka",
    "cityCode": "ADO",
    "countryCode": "AU",
    "latitude": -30.4339,
    "longitude": 137.1372,
    "timeZoneId": "Australia/Adelaide"
  },
  {
    "code": "ADP",
    "name": "Ampara Gal Oya",
    "cityCode": "ADP",
    "countryCode": "LK",
    "latitude": 7.3375,
    "longitude": 81.6258,
    "timeZoneId": "Asia/Colombo"
  },
  {
    "code": "ADQ",
    "name": "Kodiak",
    "cityCode": "ADQ",
    "countryCode": "US",
    "latitude": 57.75,
    "longitude": -152.4939,
    "timeZoneId": "America/Anchorage"
  },
  {
    "code": "ADR",
    "name": "Andrews Robert F. Swinnie",
    "cityCode": "ADR",
    "countryCode": "US",
    "latitude": 33.45,
    "longitude": -79.5667,
    "timeZoneId": "America/New_York"
  },
  {
    "code": "ADS",
    "name": "Dallas Addison Apt",
    "cityCode": "DFW",
    "countryCode": "US",
    "latitude": 32.9703,
    "longitude": -96.8372,
    "timeZoneId": "America/Chicago"
  },
  {
    "code": "ADT",
    "name": "Ada Municipal",
    "cityCode": "ADT",
    "countryCode": "US",
    "latitude": 34.8,
    "longitude": -96.6667,
    "timeZoneId": "America/Chicago"
  },
  {
    "code": "ADU",
    "name": "Ardabil",
    "cityCode": "ADU",
    "countryCode": "IR",
    "latitude": 38.3256,
    "longitude": 48.4242,
    "timeZoneId": "Asia/Tehran"
  },
  {
    "code": "ADV",
    "name": "Addeain",
    "cityCode": "ADV",
    "countryCode": "SD",
    "latitude": 11.4022,
    "longitude": 26.1186,
    "timeZoneId": "Africa/Khartoum"
  },
  {
    "code": "ADW",
    "name": "Camp Springs Andrews",
    "cityCode": "ADW",
    "countryCode": "US",
    "latitude": 38.8089,
    "longitude": -76.8708,
    "timeZoneId": "America/New_York"
  },
  {
    "code": "ADX",
    "name": "St Andrews Leuchars Raf",
    "cityCode": "ADX",
    "countryCode": "GB",
    "latitude": 56.3667,
    "longitude": -2.8667,
    "timeZoneId": "Europe/London"
  },
  {
    "code": "ADY",
    "name": "Alldays",
    "cityCode": "ADY",
    "countryCode": "ZA",
    "latitude": -22.6667,
    "longitude": 29.1,
    "timeZoneId": "Africa/Johannesburg"
  },
  {
    "code": "ADZ",
    "name": "San Andres Island",
    "cityCode": "ADZ",
    "countryCode": "CO",
    "latitude": 12.5836,
    "longitude": -81.7111,
    "timeZoneId": "America/Bogota"
  },
  {
    "code": "AEA",
    "name": "Abemama Atoll",
    "cityCode": "AEA",
    "countryCode": "KI",
    "latitude": 0.4906,
    "longitude": 173.83,
    "timeZoneId": "Pacific/Tarawa"
  },
  {
    "code": "AEB",
    "name": "Baise Youjiang",
    "cityCode": "AEB",
    "countryCode": "CN",
    "latitude": 23.72,
    "longitude": 106.9603,
    "timeZoneId": "Asia/Shanghai"
  },
  {
    "code": "AEB",
    "name": "Baise Youjiang",
    "cityCode": "AEB",
    "countryCode": "CN",
    "latitude": 23.72,
    "longitude": 106.9603,
    "timeZoneId": "Asia/Shanghai"
  },
  {
    "code": "AED",
    "name": "Aleneva",
    "cityCode": "AED",
    "countryCode": "US",
    "latitude": 58.0333,
    "longitude": -152.9,
    "timeZoneId": "America/Anchorage"
  },
  {
    "code": "AEE",
    "name": "Adareil",
    "cityCode": "AEE",
    "countryCode": "SS",
    "latitude": 10.0611,
    "longitude": 32.9619,
    "timeZoneId": "Africa/Juba"
  },
  {
    "code": "AEG",
    "name": "Padangsidempuan Aek Godang",
    "cityCode": "AEG",
    "countryCode": "ID",
    "latitude": 1.4,
    "longitude": 99.43,
    "timeZoneId": "Asia/Pontianak"
  },
  {
    "code": "AEH",
    "name": "Abeche",
    "cityCode": "AEH",
    "countryCode": "TD",
    "latitude": 13.8475,
    "longitude": 20.8444,
    "timeZoneId": "Africa/Ndjamena"
  },
  {
    "code": "AEI",
    "name": "Algeciras Rail Station",
    "cityCode": "AEI",
    "countryCode": "ES",
    "latitude": 36.1267,
    "longitude": -5.4492,
    "timeZoneId": "Europe/Madrid"
  },
  {
    "code": "AEJ",
    "name": "Ahmed Al Jaber",
    "cityCode": "AEJ",
    "countryCode": "KW",
    "latitude": 28.9333,
    "longitude": 47.7833,
    "timeZoneId": "Asia/Kuwait"
  },
  {
    "code": "AEK",
    "name": "Aseki",
    "cityCode": "AEK",
    "countryCode": "PG",
    "latitude": -7.3667,
    "longitude": 146.2833,
    "timeZoneId": "Pacific/Port_Moresby"
  },
  {
    "code": "AEL",
    "name": "Albert Lea Municipal",
    "cityCode": "AEL",
    "countryCode": "US",
    "latitude": 43.6833,
    "longitude": -93.3667,
    "timeZoneId": "America/Chicago"
  },
  {
    "code": "AEM",
    "name": "Amgu",
    "cityCode": "AEM",
    "countryCode": "RU",
    "latitude": 45.8425,
    "longitude": 137.6778,
    "timeZoneId": "Asia/Vladivostok"
  },
  {
    "code": "AEN",
    "name": "Agen Railway Stn",
    "cityCode": "AGF",
    "countryCode": "FR",
    "latitude": 44.2083,
    "longitude": 0.6208,
    "timeZoneId": "Europe/Paris"
  },
  {
    "code": "AEO",
    "name": "Aioun El Atrouss Aioun El Atrouss Airpo",
    "cityCode": "AEO",
    "countryCode": "MR",
    "latitude": 16.7,
    "longitude": -9.65,
    "timeZoneId": "Africa/Nouakchott"
  },
  {
    "code": "AEP",
    "name": "Buenos Aires Aeroparque J. N.",
    "cityCode": "BUE",
    "countryCode": "AR",
    "latitude": -34.5589,
    "longitude": -58.4164,
    "timeZoneId": "America/Argentina/Buenos_Aires"
  },
  {
    "code": "AEQ",
    "name": "Chifeng Ar Horqin",
    "cityCode": "AEQ",
    "countryCode": "CN",
    "latitude": 43.9083,
    "longitude": 120.1503,
    "timeZoneId": "Asia/Shanghai"
  },
  {
    "code": "AER",
    "name": "Sochi",
    "cityCode": "AER",
    "countryCode": "RU",
    "latitude": 43.45,
    "longitude": 39.9567,
    "timeZoneId": "Europe/Moscow"
  },
  {
    "code": "AES",
    "name": "Aalesund",
    "cityCode": "AES",
    "countryCode": "NO",
    "latitude": 62.5603,
    "longitude": 6.1103,
    "timeZoneId": "Europe/Oslo"
  },
  {
    "code": "AET",
    "name": "Allakaket",
    "cityCode": "AET",
    "countryCode": "US",
    "latitude": 66.5506,
    "longitude": -152.6319,
    "timeZoneId": "America/Anchorage"
  },
  {
    "code": "AEU",
    "name": "Abu Musa Island",
    "cityCode": "AEU",
    "countryCode": "IR",
    "latitude": 25.8756,
    "longitude": 55.0325,
    "timeZoneId": "Asia/Tehran"
  },
  {
    "code": "AEX",
    "name": "Alexandria",
    "cityCode": "AEX",
    "countryCode": "US",
    "latitude": 31.3275,
    "longitude": -92.5497,
    "timeZoneId": "America/Chicago"
  },
  {
    "code": "AEY",
    "name": "Akureyri",
    "cityCode": "AEY",
    "countryCode": "IS",
    "latitude": 65.6586,
    "longitude": -18.0722,
    "timeZoneId": "Atlantic/Reykjavik"
  },
  {
    "code": "AFA",
    "name": "San Rafael",
    "cityCode": "AFA",
    "countryCode": "AR",
    "latitude": -34.5886,
    "longitude": -68.4028,
    "timeZoneId": "America/Argentina/Buenos_Aires"
  },
  {
    "code": "AFD",
    "name": "Port Alfred",
    "cityCode": "AFD",
    "countryCode": "ZA",
    "latitude": -33.5833,
    "longitude": 26.8833,
    "timeZoneId": "Africa/Johannesburg"
  },
  {
    "code": "AFF",
    "name": "Colorado Springs Usaf Academy Airfield",
    "cityCode": "COS",
    "countryCode": "US",
    "latitude": 39.0,
    "longitude": -104.75,
    "timeZoneId": "America/Denver"
  },
  {
    "code": "AFI",
    "name": "Amalfi",
    "cityCode": "AFI",
    "countryCode": "CO",
    "latitude": 6.9167,
    "longitude": -75.0667,
    "timeZoneId": "America/Bogota"
  },
  {
    "code": "AFK",
    "name": "Ampara Kondavattavan Tank Spb",
    "cityCode": "ADP",
    "countryCode": "LK",
    "latitude": 7.2919,
    "longitude": 81.6353,
    "timeZoneId": "Asia/Colombo"
  },
  {
    "code": "AFN",
    "name": "Jaffrey Silver Ranch",
    "cityCode": "AFN",
    "countryCode": "US",
    "latitude": 42.8056,
    "longitude": -72.0033,
    "timeZoneId": "America/New_York"
  },
  {
    "code": "AFO",
    "name": "Afton Municipal",
    "cityCode": "AFO",
    "countryCode": "US",
    "latitude": 42.7167,
    "longitude": -110.9333,
    "timeZoneId": "America/Denver"
  },
  {
    "code": "AFR",
    "name": "Afore",
    "cityCode": "AFR",
    "countryCode": "PG",
    "latitude": -9.1333,
    "longitude": 148.3833,
    "timeZoneId": "Pacific/Port_Moresby"
  },
  {
    "code": "AFS",
    "name": "Zarafshan",
    "cityCode": "AFS",
    "countryCode": "UZ",
    "latitude": 41.6158,
    "longitude": 64.2331,
    "timeZoneId": "Asia/Tashkent"
  },
  {
    "code": "AFT",
    "name": "Afutara",
    "cityCode": "AFT",
    "countryCode": "SB",
    "latitude": -9.1911,
    "longitude": 160.9492,
    "timeZoneId": "Pacific/Guadalcanal"
  },
  {
    "code": "AFU",
    "name": "Al Udeid",
    "cityCode": "AFU",
    "countryCode": "QA",
    "latitude": 25.1,
    "longitude": 51.3,
    "timeZoneId": "Asia/Qatar"
  },
  {
    "code": "AFW",
    "name": "Dallas/Fort Worth Alliance",
    "cityCode": "FTW",
    "countryCode": "US",
    "latitude": 32.9833,
    "longitude": -97.3167,
    "timeZoneId": "America/Chicago"
  },
  {
    "code": "AFY",
    "name": "Afyon",
    "cityCode": "AFY",
    "countryCode": "TR",
    "latitude": 38.7333,
    "longitude": 30.6,
    "timeZoneId": "Europe/Istanbul"
  },
  {
    "code": "AFZ",
    "name": "Sabzevar",
    "cityCode": "AFZ",
    "countryCode": "IR",
    "latitude": 36.1686,
    "longitude": 57.5964,
    "timeZoneId": "Asia/Tehran"
  },
  {
    "code": "AGA",
    "name": "Agadir",
    "cityCode": "AGA",
    "countryCode": "MA",
    "latitude": 30.325,
    "longitude": -9.4131,
    "timeZoneId": "Africa/Casablanca"
  },
  {
    "code": "AGB",
    "name": "Augsburg",
    "cityCode": "MUC",
    "countryCode": "DE",
    "latitude": 48.4253,
    "longitude": 10.9317,
    "timeZoneId": "Europe/Berlin"
  },
  {
    "code": "AGC",
    "name": "Pittsburgh Allegheny",
    "cityCode": "PIT",
    "countryCode": "US",
    "latitude": 40.3544,
    "longitude": -79.9297,
    "timeZoneId": "America/New_York"
  },
  {
    "code": "AGD",
    "name": "Anggi",
    "cityCode": "AGD",
    "countryCode": "ID",
    "latitude": -1.3833,
    "longitude": 133.8667,
    "timeZoneId": "Asia/Jayapura"
  },
  {
    "code": "AGE",
    "name": "Wangerooge",
    "cityCode": "AGE",
    "countryCode": "DE",
    "latitude": 53.7872,
    "longitude": 7.9158,
    "timeZoneId": "Europe/Berlin"
  },
  {
    "code": "AGF",
    "name": "Agen La Garenne",
    "cityCode": "AGF",
    "countryCode": "FR",
    "latitude": 44.1747,
    "longitude": 0.5906,
    "timeZoneId": "Europe/Paris"
  },
  {
    "code": "AGG",
    "name": "Angoram",
    "cityCode": "AGG",
    "countryCode": "PG",
    "latitude": -4.0667,
    "longitude": 144.1,
    "timeZoneId": "Pacific/Port_Moresby"
  },
  {
    "code": "AGH",
    "name": "Angelholm/Helsingborg Airport",
    "cityCode": "AGH",
    "countryCode": "SE",
    "latitude": 56.2961,
    "longitude": 12.8472,
    "timeZoneId": "Europe/Stockholm"
  },
  {
    "code": "AGI",
    "name": "Wageningen",
    "cityCode": "AGI",
    "countryCode": "SR",
    "latitude": 5.7667,
    "longitude": -56.6833,
    "timeZoneId": "America/Paramaribo"
  },
  {
    "code": "AGJ",
    "name": "Aguni",
    "cityCode": "AGJ",
    "countryCode": "JP",
    "latitude": 26.5833,
    "longitude": 127.25,
    "timeZoneId": "Asia/Tokyo"
  },
  {
    "code": "AGK",
    "name": "Kagua",
    "cityCode": "AGK",
    "countryCode": "PG",
    "latitude": -6.3333,
    "longitude": 143.8333,
    "timeZoneId": "Pacific/Port_Moresby"
  },
  {
    "code": "AGL",
    "name": "Wanigela",
    "cityCode": "AGL",
    "countryCode": "PG",
    "latitude": -9.3333,
    "longitude": 149.15,
    "timeZoneId": "Pacific/Port_Moresby"
  },
  {
    "code": "AGM",
    "name": "Tasiilaq Ammassalik Heliport",
    "cityCode": "AGM",
    "countryCode": "GL",
    "latitude": 65.6125,
    "longitude": -37.6186,
    "timeZoneId": "America/Godthab"
  },
  {
    "code": "AGN",
    "name": "Angoon",
    "cityCode": "AGN",
    "countryCode": "US",
    "latitude": 57.495,
    "longitude": -134.5672,
    "timeZoneId": "America/Anchorage"
  },
  {
    "code": "AGO",
    "name": "Magnolia Municipal",
    "cityCode": "AGO",
    "countryCode": "US",
    "latitude": 33.2333,
    "longitude": -93.2167,
    "timeZoneId": "America/Chicago"
  },
  {
    "code": "AGP",
    "name": "Malaga",
    "cityCode": "AGP",
    "countryCode": "ES",
    "latitude": 36.675,
    "longitude": -4.4992,
    "timeZoneId": "Europe/Madrid"
  },
  {
    "code": "AGQ",
    "name": "Agrinion G.Karaiskakis",
    "cityCode": "AGQ",
    "countryCode": "GR",
    "latitude": 38.6019,
    "longitude": 21.3511,
    "timeZoneId": "Europe/Athens"
  },
  {
    "code": "AGR",
    "name": "Agra",
    "cityCode": "AGR",
    "countryCode": "IN",
    "latitude": 27.1558,
    "longitude": 77.9608,
    "timeZoneId": "Asia/Kolkata"
  },
  {
    "code": "AGS",
    "name": "Augusta",
    "cityCode": "AGS",
    "countryCode": "US",
    "latitude": 33.37,
    "longitude": -81.9644,
    "timeZoneId": "America/New_York"
  },
  {
    "code": "AGT",
    "name": "Ciudad Del Este",
    "cityCode": "AGT",
    "countryCode": "PY",
    "latitude": -25.4556,
    "longitude": -54.8436,
    "timeZoneId": "America/Asuncion"
  },
  {
    "code": "AGU",
    "name": "Aguascalientes",
    "cityCode": "AGU",
    "countryCode": "MX",
    "latitude": 21.7056,
    "longitude": -102.3178,
    "timeZoneId": "America/Mexico_City"
  },
  {
    "code": "AGV",
    "name": "Acarigua",
    "cityCode": "AGV",
    "countryCode": "VE",
    "latitude": 9.55,
    "longitude": -69.2333,
    "timeZoneId": "America/Caracas"
  },
  {
    "code": "AGW",
    "name": "Agnew",
    "cityCode": "AGW",
    "countryCode": "AU",
    "latitude": -12.15,
    "longitude": 142.15,
    "timeZoneId": "Australia/Brisbane"
  },
  {
    "code": "AGX",
    "name": "Agatti Island",
    "cityCode": "AGX",
    "countryCode": "IN",
    "latitude": 10.8236,
    "longitude": 72.1761,
    "timeZoneId": "Asia/Kolkata"
  },
  {
    "code": "AGY",
    "name": "Augsburg Central Station",
    "cityCode": "MUC",
    "countryCode": "DE",
    "latitude": 48.3656,
    "longitude": 10.8864,
    "timeZoneId": "Europe/Berlin"
  },
  {
    "code": "AGZ",
    "name": "Aggeneys",
    "cityCode": "AGZ",
    "countryCode": "ZA",
    "latitude": -29.2833,
    "longitude": 18.8167,
    "timeZoneId": "Africa/Johannesburg"
  },
  {
    "code": "AHA",
    "name": "Ambikapur Maa Mahamaya",
    "cityCode": "AHA",
    "countryCode": "IN",
    "latitude": 22.9867,
    "longitude": 83.1975,
    "timeZoneId": "Asia/Kolkata"
  },
  {
    "code": "AHB",
    "name": "Abha",
    "cityCode": "AHB",
    "countryCode": "SA",
    "latitude": 18.2403,
    "longitude": 42.6567,
    "timeZoneId": "Asia/Riyadh"
  },
  {
    "code": "AHC",
    "name": "Herlong Amedee Aaf",
    "cityCode": "AHC",
    "countryCode": "US",
    "latitude": 40.15,
    "longitude": -120.1333,
    "timeZoneId": "America/Los_Angeles"
  },
  {
    "code": "AHD",
    "name": "Ardmore Downtown Executive Apt",
    "cityCode": "ADM",
    "countryCode": "US",
    "latitude": 34.1667,
    "longitude": -97.1333,
    "timeZoneId": "America/Chicago"
  },
  {
    "code": "AHE",
    "name": "Ahe",
    "cityCode": "AHE",
    "countryCode": "PF",
    "latitude": -14.4281,
    "longitude": -146.2569,
    "timeZoneId": "Pacific/Tahiti"
  },
  {
    "code": "AHF",
    "name": "Arapahoe Municipal",
    "cityCode": "AHF",
    "countryCode": "US",
    "latitude": 40.3333,
    "longitude": -99.9,
    "timeZoneId": "America/Chicago"
  },
  {
    "code": "AHG",
    "name": "Agalega Airstrip",
    "cityCode": "AHG",
    "countryCode": "MU",
    "latitude": -10.375,
    "longitude": 56.6094,
    "timeZoneId": "Indian/Mauritius"
  },
  {
    "code": "AHH",
    "name": "Amery Municipal",
    "cityCode": "AHH",
    "countryCode": "US",
    "latitude": 45.2833,
    "longitude": -92.3667,
    "timeZoneId": "America/Chicago"
  },
  {
    "code": "AHI",
    "name": "Amahai",
    "cityCode": "AHI",
    "countryCode": "ID",
    "latitude": -3.3333,
    "longitude": 128.9167,
    "timeZoneId": "Asia/Jayapura"
  },
  {
    "code": "AHJ",
    "name": "Aba/Hongyuan Airport",
    "cityCode": "AHJ",
    "countryCode": "CN",
    "latitude": 32.5314,
    "longitude": 102.3519,
    "timeZoneId": "Asia/Shanghai"
  },
  {
    "code": "AHL",
    "name": "Aishalton",
    "cityCode": "AHL",
    "countryCode": "GY",
    "latitude": 2.4833,
    "longitude": -59.3167,
    "timeZoneId": "America/Guyana"
  },
  {
    "code": "AHM",
    "name": "Ashland Municipal",
    "cityCode": "AHM",
    "countryCode": "US",
    "latitude": 42.1903,
    "longitude": -122.6606,
    "timeZoneId": "America/Los_Angeles"
  },
  {
    "code": "AHN",
    "name": "Athens",
    "cityCode": "AHN",
    "countryCode": "US",
    "latitude": 33.9494,
    "longitude": -83.3219,
    "timeZoneId": "America/New_York"
  },
  {
    "code": "AHO",
    "name": "Alghero",
    "cityCode": "AHO",
    "countryCode": "IT",
    "latitude": 40.6303,
    "longitude": 8.2897,
    "timeZoneId": "Europe/Rome"
  },
  {
    "code": "AHS",
    "name": "Ahuas",
    "cityCode": "AHS",
    "countryCode": "HN",
    "latitude": 15.4417,
    "longitude": -84.425,
    "timeZoneId": "America/Tegucigalpa"
  },
  {
    "code": "AHT",
    "name": "Amchitka",
    "cityCode": "AHT",
    "countryCode": "US",
    "latitude": 51.5,
    "longitude": 179.0,
    "timeZoneId": "America/Adak"
  },
  {
    "code": "AHU",
    "name": "Al Hoceima Cherif El Idrissi",
    "cityCode": "AHU",
    "countryCode": "MA",
    "latitude": 35.1772,
    "longitude": -3.8394,
    "timeZoneId": "Africa/Casablanca"
  },
  {
    "code": "AHW",
    "name": "Saih Rawl",
    "cityCode": "AHW",
    "countryCode": "OM",
    "latitude": 21.3428,
    "longitude": 56.7656,
    "timeZoneId": "Asia/Muscat"
  },
  {
    "code": "AHY",
    "name": "Ambatolahy",
    "cityCode": "AHY",
    "countryCode": "MG",
    "latitude": -20.0167,
    "longitude": 45.5333,
    "timeZoneId": "Indian/Antananarivo"
  },
  {
    "code": "AHZ",
    "name": "L'alpe-D'huez",
    "cityCode": "AHZ",
    "countryCode": "FR",
    "latitude": 45.0883,
    "longitude": 6.0847,
    "timeZoneId": "Europe/Paris"
  },
  {
    "code": "AIB",
    "name": "Anita Bay",
    "cityCode": "AIB",
    "countryCode": "US",
    "latitude": 56.2333,
    "longitude": -132.3833,
    "timeZoneId": "America/Anchorage"
  },
  {
    "code": "AIC",
    "name": "Airok",
    "cityCode": "AIC",
    "countryCode": "MH",
    "latitude": 7.2794,
    "longitude": 168.8258,
    "timeZoneId": "Pacific/Majuro"
  },
  {
    "code": "AID",
    "name": "Anderson Municipal",
    "cityCode": "AID",
    "countryCode": "US",
    "latitude": 40.1,
    "longitude": -85.6667,
    "timeZoneId": "America/New_York"
  },
  {
    "code": "AIE",
    "name": "Aiome",
    "cityCode": "AIE",
    "countryCode": "PG",
    "latitude": -5.1333,
    "longitude": 144.7333,
    "timeZoneId": "Pacific/Port_Moresby"
  },
  {
    "code": "AIF",
    "name": "Assis Marcelo P. Halzhausen",
    "cityCode": "AIF",
    "countryCode": "BR",
    "latitude": -22.6667,
    "longitude": -50.4167,
    "timeZoneId": "America/Sao_Paulo"
  },
  {
    "code": "AIG",
    "name": "Yalinga",
    "cityCode": "AIG",
    "countryCode": "CF",
    "latitude": 6.5167,
    "longitude": 23.25,
    "timeZoneId": "Africa/Bangui"
  },
  {
    "code": "AIH",
    "name": "Aiambak",
    "cityCode": "AIH",
    "countryCode": "PG",
    "latitude": -7.3486,
    "longitude": 141.2667,
    "timeZoneId": "Pacific/Port_Moresby"
  },
  {
    "code": "AII",
    "name": "Ali Sabieh",
    "cityCode": "AII",
    "countryCode": "DJ",
    "latitude": 11.15,
    "longitude": 42.7167,
    "timeZoneId": "Africa/Djibouti"
  },
  {
    "code": "AIK",
    "name": "Aiken",
    "cityCode": "AIK",
    "countryCode": "US",
    "latitude": 33.6494,
    "longitude": -81.6892,
    "timeZoneId": "America/New_York"
  },
  {
    "code": "AIL",
    "name": "Ailigandi",
    "cityCode": "AIL",
    "countryCode": "PA",
    "latitude": 9.2333,
    "longitude": -78.0167,
    "timeZoneId": "America/Panama"
  },
  {
    "code": "AIM",
    "name": "Ailuk Island",
    "cityCode": "AIM",
    "countryCode": "MH",
    "latitude": 10.2169,
    "longitude": 169.9836,
    "timeZoneId": "Pacific/Majuro"
  },
  {
    "code": "AIN",
    "name": "Wainwright",
    "cityCode": "AIN",
    "countryCode": "US",
    "latitude": 70.6136,
    "longitude": -159.8669,
    "timeZoneId": "America/Anchorage"
  },
  {
    "code": "AIO",
    "name": "Atlantic Municipal",
    "cityCode": "AIO",
    "countryCode": "US",
    "latitude": 41.4,
    "longitude": -95.0167,
    "timeZoneId": "America/Chicago"
  },
  {
    "code": "AIP",
    "name": "Adampur",
    "cityCode": "AIP",
    "countryCode": "IN",
    "latitude": 31.4328,
    "longitude": 75.7589,
    "timeZoneId": "Asia/Kolkata"
  },
  {
    "code": "AIR",
    "name": "Aripuana",
    "cityCode": "AIR",
    "countryCode": "BR",
    "latitude": -10.1911,
    "longitude": -59.4569,
    "timeZoneId": "America/Porto_Velho"
  },
  {
    "code": "AIS",
    "name": "Arorae",
    "cityCode": "AIS",
    "countryCode": "KI",
    "latitude": -2.6164,
    "longitude": 176.8025,
    "timeZoneId": "Pacific/Tarawa"
  },
  {
    "code": "AIT",
    "name": "Aitutaki",
    "cityCode": "AIT",
    "countryCode": "CK",
    "latitude": -18.8311,
    "longitude": -159.7647,
    "timeZoneId": "Pacific/Rarotonga"
  },
  {
    "code": "AIU",
    "name": "Atiu Island",
    "cityCode": "AIU",
    "countryCode": "CK",
    "latitude": -19.9667,
    "longitude": -158.125,
    "timeZoneId": "Pacific/Rarotonga"
  },
  {
    "code": "AIV",
    "name": "Aliceville George Downer",
    "cityCode": "AIV",
    "countryCode": "US",
    "latitude": 33.1,
    "longitude": -88.2,
    "timeZoneId": "America/Chicago"
  },
  {
    "code": "AIW",
    "name": "Ai-Ais",
    "cityCode": "AIW",
    "countryCode": "NA",
    "latitude": -27.9833,
    "longitude": 17.5833,
    "timeZoneId": "Africa/Windhoek"
  },
  {
    "code": "AIX",
    "name": "Aix-En-Provence Daix Bus St",
    "cityCode": "CMF",
    "countryCode": "FR",
    "latitude": 45.6883,
    "longitude": 5.9094,
    "timeZoneId": "Europe/Paris"
  },
  {
    "code": "AIY",
    "name": "Aracuai Airport",
    "cityCode": "AIY",
    "countryCode": "BR",
    "latitude": -16.8508,
    "longitude": -42.0461,
    "timeZoneId": "America/Sao_Paulo"
  },
  {
    "code": "AIZ",
    "name": "Kaiser/Lake Ozark Lee C Fine Memorial",
    "cityCode": "AIZ",
    "countryCode": "US",
    "latitude": 38.1,
    "longitude": -92.55,
    "timeZoneId": "America/Chicago"
  },
  {
    "code": "AJA",
    "name": "Ajaccio",
    "cityCode": "AJA",
    "countryCode": "FR",
    "latitude": 41.9239,
    "longitude": 8.8025,
    "timeZoneId": "Europe/Paris"
  },
  {
    "code": "AJF",
    "name": "Jouf Airport",
    "cityCode": "AJF",
    "countryCode": "SA",
    "latitude": 29.785,
    "longitude": 40.1,
    "timeZoneId": "Asia/Riyadh"
  },
  {
    "code": "AJI",
    "name": "Agri",
    "cityCode": "AJI",
    "countryCode": "TR",
    "latitude": 39.6539,
    "longitude": 43.0264,
    "timeZoneId": "Europe/Istanbul"
  },
  {
    "code": "AJJ",
    "name": "Akjoujt",
    "cityCode": "AJJ",
    "countryCode": "MR",
    "latitude": 19.7333,
    "longitude": -14.3833,
    "timeZoneId": "Africa/Nouakchott"
  },
  {
    "code": "AJK",
    "name": "Arak Airport",
    "cityCode": "AJK",
    "countryCode": "IR",
    "latitude": 34.1381,
    "longitude": 49.8469,
    "timeZoneId": "Asia/Tehran"
  },
  {
    "code": "AJL",
    "name": "Aizawl Lengpui",
    "cityCode": "AJL",
    "countryCode": "IN",
    "latitude": 23.8389,
    "longitude": 92.6203,
    "timeZoneId": "Asia/Kolkata"
  },
  {
    "code": "AJN",
    "name": "Anjouan Ouani",
    "cityCode": "AJN",
    "countryCode": "KM",
    "latitude": -12.1311,
    "longitude": 44.4297,
    "timeZoneId": "Indian/Comoro"
  },
  {
    "code": "AJO",
    "name": "Aljouf",
    "cityCode": "AJO",
    "countryCode": "YE",
    "latitude": 15.7167,
    "longitude": 44.25,
    "timeZoneId": "Asia/Aden"
  },
  {
    "code": "AJR",
    "name": "Arvidsjaur",
    "cityCode": "AJR",
    "countryCode": "SE",
    "latitude": 65.5903,
    "longitude": 19.2819,
    "timeZoneId": "Europe/Stockholm"
  },
  {
    "code": "AJS",
    "name": "Punta Abreojos",
    "cityCode": "AJS",
    "countryCode": "MX",
    "latitude": 26.7333,
    "longitude": -113.5833,
    "timeZoneId": "America/Mazatlan"
  },
  {
    "code": "AJY",
    "name": "Agadez Manu Dayak Intl",
    "cityCode": "AJY",
    "countryCode": "NE",
    "latitude": 16.9625,
    "longitude": 7.9903,
    "timeZoneId": "Africa/Niamey"
  },
  {
    "code": "AKA",
    "name": "Ankang Fuqiang",
    "cityCode": "AKA",
    "countryCode": "CN",
    "latitude": 32.7078,
    "longitude": 108.9322,
    "timeZoneId": "Asia/Shanghai"
  },
  {
    "code": "AKB",
    "name": "Atka",
    "cityCode": "AKB",
    "countryCode": "US",
    "latitude": 52.2183,
    "longitude": -174.2064,
    "timeZoneId": "America/Adak"
  },
  {
    "code": "AKC",
    "name": "Akron/Canton Akron Fulton Intl",
    "cityCode": "CAK",
    "countryCode": "US",
    "latitude": 41.0369,
    "longitude": -81.4689,
    "timeZoneId": "America/New_York"
  },
  {
    "code": "AKD",
    "name": "Akola",
    "cityCode": "AKD",
    "countryCode": "IN",
    "latitude": 20.6667,
    "longitude": 77.0833,
    "timeZoneId": "Asia/Kolkata"
  },
  {
    "code": "AKE",
    "name": "Akieni",
    "cityCode": "AKE",
    "countryCode": "GA",
    "latitude": -1.1722,
    "longitude": 13.9167,
    "timeZoneId": "Africa/Libreville"
  },
  {
    "code": "AKF",
    "name": "Kufra",
    "cityCode": "AKF",
    "countryCode": "LY",
    "latitude": 24.1786,
    "longitude": 23.3139,
    "timeZoneId": "Africa/Tripoli"
  },
  {
    "code": "AKG",
    "name": "Anguganak",
    "cityCode": "AKG",
    "countryCode": "PG",
    "latitude": -3.5833,
    "longitude": 142.25,
    "timeZoneId": "Pacific/Port_Moresby"
  },
  {
    "code": "AKI",
    "name": "Akiak",
    "cityCode": "AKI",
    "countryCode": "US",
    "latitude": 60.9017,
    "longitude": -161.2322,
    "timeZoneId": "America/Anchorage"
  },
  {
    "code": "AKJ",
    "name": "Asahikawa",
    "cityCode": "AKJ",
    "countryCode": "JP",
    "latitude": 43.6708,
    "longitude": 142.4475,
    "timeZoneId": "Asia/Tokyo"
  },
  {
    "code": "AKK",
    "name": "Akhiok",
    "cityCode": "AKK",
    "countryCode": "US",
    "latitude": 56.9386,
    "longitude": -154.1839,
    "timeZoneId": "America/Anchorage"
  },
  {
    "code": "AKL",
    "name": "Auckland",
    "cityCode": "AKL",
    "countryCode": "NZ",
    "latitude": -37.0097,
    "longitude": 174.7917,
    "timeZoneId": "Pacific/Auckland"
  },
  {
    "code": "AKM",
    "name": "Zakouma",
    "cityCode": "AKM",
    "countryCode": "TD",
    "latitude": 10.8833,
    "longitude": 19.8167,
    "timeZoneId": "Africa/Ndjamena"
  },
  {
    "code": "AKN",
    "name": "King Salmon",
    "cityCode": "AKN",
    "countryCode": "US",
    "latitude": 58.6767,
    "longitude": -156.6492,
    "timeZoneId": "America/Anchorage"
  },
  {
    "code": "AKO",
    "name": "Akron Colorado Plains Rgnl",
    "cityCode": "AKO",
    "countryCode": "US",
    "latitude": 40.1667,
    "longitude": -103.2167,
    "timeZoneId": "America/Denver"
  },
  {
    "code": "AKP",
    "name": "Anaktuvuk Pass",
    "cityCode": "AKP",
    "countryCode": "US",
    "latitude": 68.1336,
    "longitude": -151.7433,
    "timeZoneId": "America/Anchorage"
  },
  {
    "code": "AKQ",
    "name": "Menggala Astra Ksetra",
    "cityCode": "AKQ",
    "countryCode": "ID",
    "latitude": -4.6167,
    "longitude": 105.2333,
    "timeZoneId": "Asia/Pontianak"
  },
  {
    "code": "AKR",
    "name": "Akure",
    "cityCode": "AKR",
    "countryCode": "NG",
    "latitude": 7.2486,
    "longitude": 5.3019,
    "timeZoneId": "Africa/Lagos"
  },
  {
    "code": "AKS",
    "name": "Auki Gwaunaru'u",
    "cityCode": "AKS",
    "countryCode": "SB",
    "latitude": -8.7025,
    "longitude": 160.6819,
    "timeZoneId": "Pacific/Guadalcanal"
  },
  {
    "code": "AKT",
    "name": "Akrotiri Royal Air Force",
    "cityCode": "AKT",
    "countryCode": "CY",
    "latitude": 34.5906,
    "longitude": 32.9878,
    "timeZoneId": "Asia/Nicosia"
  },
  {
    "code": "AKU",
    "name": "Aksu",
    "cityCode": "AKU",
    "countryCode": "CN",
    "latitude": 41.2628,
    "longitude": 80.2919,
    "timeZoneId": "Asia/Shanghai"
  },
  {
    "code": "AKV",
    "name": "Akulivik",
    "cityCode": "AKV",
    "countryCode": "CA",
    "latitude": 60.8186,
    "longitude": -78.1486,
    "timeZoneId": "America/Toronto"
  },
  {
    "code": "AKW",
    "name": "Aghajari",
    "cityCode": "AKW",
    "countryCode": "IR",
    "latitude": 30.75,
    "longitude": 49.6833,
    "timeZoneId": "Asia/Tehran"
  },
  {
    "code": "AKX",
    "name": "Aktobe",
    "cityCode": "AKX",
    "countryCode": "KZ",
    "latitude": 50.2458,
    "longitude": 57.2067,
    "timeZoneId": "Asia/Qyzylorda"
  },
  {
    "code": "AKY",
    "name": "Sittwe",
    "cityCode": "AKY",
    "countryCode": "MM",
    "latitude": 20.1328,
    "longitude": 92.8725,
    "timeZoneId": "Asia/Yangon"
  },
  {
    "code": "ALA",
    "name": "Almaty",
    "cityCode": "ALA",
    "countryCode": "KZ",
    "latitude": 43.3533,
    "longitude": 77.0422,
    "timeZoneId": "Asia/Qyzylorda"
  },
  {
    "code": "ALB",
    "name": "Albany (US)",
    "cityCode": "ALB",
    "countryCode": "US",
    "latitude": 42.7483,
    "longitude": -73.8017,
    "timeZoneId": "America/New_York"
  },
  {
    "code": "ALC",
    "name": "Alicante",
    "cityCode": "ALC",
    "countryCode": "ES",
    "latitude": 38.2822,
    "longitude": -0.5581,
    "timeZoneId": "Europe/Madrid"
  },
  {
    "code": "ALD",
    "name": "Alerta",
    "cityCode": "ALD",
    "countryCode": "PE",
    "latitude": -11.7,
    "longitude": -69.35,
    "timeZoneId": "America/Lima"
  },
  {
    "code": "ALE",
    "name": "Alpine Casparis Municipal",
    "cityCode": "ALE",
    "countryCode": "US",
    "latitude": 30.3861,
    "longitude": -103.6833,
    "timeZoneId": "America/Chicago"
  },
  {
    "code": "ALF",
    "name": "Alta",
    "cityCode": "ALF",
    "countryCode": "NO",
    "latitude": 69.9761,
    "longitude": 23.3717,
    "timeZoneId": "Europe/Oslo"
  },
  {
    "code": "ALG",
    "name": "Algiers",
    "cityCode": "ALG",
    "countryCode": "DZ",
    "latitude": 36.6942,
    "longitude": 3.2147,
    "timeZoneId": "Africa/Algiers"
  },
  {
    "code": "ALH",
    "name": "Albany",
    "cityCode": "ALH",
    "countryCode": "AU",
    "latitude": -34.9433,
    "longitude": 117.8089,
    "timeZoneId": "Australia/Perth"
  },
  {
    "code": "ALI",
    "name": "Alice International",
    "cityCode": "ALI",
    "countryCode": "US",
    "latitude": 27.7392,
    "longitude": -98.0269,
    "timeZoneId": "America/Chicago"
  },
  {
    "code": "ALJ",
    "name": "Alexander Bay",
    "cityCode": "ALJ",
    "countryCode": "ZA",
    "latitude": -28.5667,
    "longitude": 16.5333,
    "timeZoneId": "Africa/Johannesburg"
  },
  {
    "code": "ALK",
    "name": "Asela",
    "cityCode": "ALK",
    "countryCode": "ET",
    "latitude": 7.9667,
    "longitude": 39.1167,
    "timeZoneId": "Africa/Addis_Ababa"
  },
  {
    "code": "ALL",
    "name": "Albenga",
    "cityCode": "ALL",
    "countryCode": "IT",
    "latitude": 44.0458,
    "longitude": 8.1256,
    "timeZoneId": "Europe/Rome"
  },
  {
    "code": "ALM",
    "name": "Alamogordo White Sands Rgnl",
    "cityCode": "ALM",
    "countryCode": "US",
    "latitude": 32.84,
    "longitude": -105.9906,
    "timeZoneId": "America/Denver"
  },
  {
    "code": "ALN",
    "name": "Alton St Louis Regional",
    "cityCode": "ALN",
    "countryCode": "US",
    "latitude": 38.8917,
    "longitude": -90.1722,
    "timeZoneId": "America/Chicago"
  },
  {
    "code": "ALO",
    "name": "Waterloo",
    "cityCode": "ALO",
    "countryCode": "US",
    "latitude": 42.5569,
    "longitude": -92.4003,
    "timeZoneId": "America/Chicago"
  },
  {
    "code": "ALP",
    "name": "Aleppo International",
    "cityCode": "ALP",
    "countryCode": "SY",
    "latitude": 36.1806,
    "longitude": 37.2244,
    "timeZoneId": "Asia/Damascus"
  },
  {
    "code": "ALQ",
    "name": "Alegrete G.Machado Ramos",
    "cityCode": "ALQ",
    "countryCode": "BR",
    "latitude": -29.8,
    "longitude": -55.7333,
    "timeZoneId": "America/Sao_Paulo"
  },
  {
    "code": "ALR",
    "name": "Alexandra",
    "cityCode": "ALR",
    "countryCode": "NZ",
    "latitude": -45.2167,
    "longitude": 169.3667,
    "timeZoneId": "Pacific/Auckland"
  },
  {
    "code": "ALS",
    "name": "Alamosa San Luis Valley Rgnl",
    "cityCode": "ALS",
    "countryCode": "US",
    "latitude": 37.4375,
    "longitude": -105.8664,
    "timeZoneId": "America/Denver"
  },
  {
    "code": "ALT",
    "name": "Alenquer",
    "cityCode": "ALT",
    "countryCode": "BR",
    "latitude": -1.9389,
    "longitude": -54.7472,
    "timeZoneId": "America/Sao_Paulo"
  },
  {
    "code": "ALU",
    "name": "Alula",
    "cityCode": "ALU",
    "countryCode": "SO",
    "latitude": 11.9667,
    "longitude": 50.75,
    "timeZoneId": "Africa/Mogadishu"
  },
  {
    "code": "ALV",
    "name": "Andorra La Vella Off-Line Point",
    "cityCode": "ALV",
    "countryCode": "AD",
    "latitude": 42.5167,
    "longitude": 1.5333,
    "timeZoneId": "Europe/Andorra"
  },
  {
    "code": "ALW",
    "name": "Walla Walla",
    "cityCode": "ALW",
    "countryCode": "US",
    "latitude": 46.095,
    "longitude": -118.2878,
    "timeZoneId": "America/Los_Angeles"
  },
  {
    "code": "ALX",
    "name": "Alexander City Thomas C Russell Field",
    "cityCode": "ALX",
    "countryCode": "US",
    "latitude": 32.9333,
    "longitude": -85.95,
    "timeZoneId": "America/Chicago"
  },
  {
    "code": "ALY",
    "name": "Alexandria",
    "cityCode": "ALY",
    "countryCode": "EG",
    "latitude": 31.1839,
    "longitude": 29.9489,
    "timeZoneId": "Africa/Cairo"
  },
  {
    "code": "ALZ",
    "name": "Alitak",
    "cityCode": "ALZ",
    "countryCode": "US",
    "latitude": 56.8989,
    "longitude": -154.2497,
    "timeZoneId": "America/Anchorage"
  },
  {
    "code": "AMA",
    "name": "Amarillo",
    "cityCode": "AMA",
    "countryCode": "US",
    "latitude": 35.2194,
    "longitude": -101.7058,
    "timeZoneId": "America/Chicago"
  },
  {
    "code": "AMB",
    "name": "Ambilobe",
    "cityCode": "AMB",
    "countryCode": "MG",
    "latitude": -13.1833,
    "longitude": 48.9833,
    "timeZoneId": "Indian/Antananarivo"
  },
  {
    "code": "AMC",
    "name": "Am Timan",
    "cityCode": "AMC",
    "countryCode": "TD",
    "latitude": 11.0333,
    "longitude": 20.2833,
    "timeZoneId": "Africa/Ndjamena"
  },
  {
    "code": "AMD",
    "name": "Ahmedabad",
    "cityCode": "AMD",
    "countryCode": "IN",
    "latitude": 23.0772,
    "longitude": 72.6347,
    "timeZoneId": "Asia/Kolkata"
  },
  {
    "code": "AME",
    "name": "Alto Molocue",
    "cityCode": "AME",
    "countryCode": "MZ",
    "latitude": -15.65,
    "longitude": 37.6833,
    "timeZoneId": "Africa/Maputo"
  },
  {
    "code": "AMF",
    "name": "Ama",
    "cityCode": "AMF",
    "countryCode": "PG",
    "latitude": -4.1667,
    "longitude": 141.6667,
    "timeZoneId": "Pacific/Port_Moresby"
  },
  {
    "code": "AMG",
    "name": "Amboin",
    "cityCode": "AMG",
    "countryCode": "PG",
    "latitude": -4.6,
    "longitude": 143.5,
    "timeZoneId": "Pacific/Port_Moresby"
  },
  {
    "code": "AMI",
    "name": "Mataram",
    "cityCode": "AMI",
    "countryCode": "IN",
    "latitude": 30.3733,
    "longitude": 76.8119,
    "timeZoneId": "Asia/Kolkata"
  },
  {
    "code": "AMJ",
    "name": "Almenara Cirilo Queiroz",
    "cityCode": "AMJ",
    "countryCode": "BR",
    "latitude": -16.1833,
    "longitude": -40.6833,
    "timeZoneId": "America/Sao_Paulo"
  },
  {
    "code": "AMK",
    "name": "Durango Animas Air Park",
    "cityCode": "DRO",
    "countryCode": "US",
    "latitude": 37.1528,
    "longitude": -107.7528,
    "timeZoneId": "America/Denver"
  },
  {
    "code": "AML",
    "name": "Puerto Armuelles",
    "cityCode": "AML",
    "countryCode": "PA",
    "latitude": 8.3,
    "longitude": -82.8667,
    "timeZoneId": "America/Panama"
  },
  {
    "code": "AMM",
    "name": "Amman",
    "cityCode": "AMM",
    "countryCode": "JO",
    "latitude": 31.7225,
    "longitude": 35.9933,
    "timeZoneId": "Asia/Amman"
  },
  {
    "code": "AMN",
    "name": "Alma Gratiot Community",
    "cityCode": "AMN",
    "countryCode": "US",
    "latitude": 43.3833,
    "longitude": -84.65,
    "timeZoneId": "America/New_York"
  },
  {
    "code": "AMO",
    "name": "Mao",
    "cityCode": "AMO",
    "countryCode": "TD",
    "latitude": 14.1167,
    "longitude": 15.3167,
    "timeZoneId": "Africa/Ndjamena"
  },
  {
    "code": "AMP",
    "name": "Ampanihy",
    "cityCode": "AMP",
    "countryCode": "MG",
    "latitude": -24.7,
    "longitude": 44.7333,
    "timeZoneId": "Indian/Antananarivo"
  },
  {
    "code": "AMQ",
    "name": "Ambon Pattimura",
    "cityCode": "AMQ",
    "countryCode": "ID",
    "latitude": -3.7103,
    "longitude": 128.0892,
    "timeZoneId": "Asia/Jayapura"
  },
  {
    "code": "AMR",
    "name": "Almeria Rail Station",
    "cityCode": "LEI",
    "countryCode": "ES",
    "latitude": 36.8347,
    "longitude": -2.4564,
    "timeZoneId": "Europe/Madrid"
  },
  {
    "code": "AMS",
    "name": "Amsterdam",
    "cityCode": "AMS",
    "countryCode": "NL",
    "latitude": 52.3081,
    "longitude": 4.7642,
    "timeZoneId": "Europe/Amsterdam"
  },
  {
    "code": "AMT",
    "name": "Amata",
    "cityCode": "AMT",
    "countryCode": "AU",
    "latitude": -26.2,
    "longitude": 131.1167,
    "timeZoneId": "Australia/Adelaide"
  },
  {
    "code": "AMU",
    "name": "Amanab",
    "cityCode": "AMU",
    "countryCode": "PG",
    "latitude": -3.5833,
    "longitude": 141.2167,
    "timeZoneId": "Pacific/Port_Moresby"
  },
  {
    "code": "AMV",
    "name": "Amderma",
    "cityCode": "AMV",
    "countryCode": "RU",
    "latitude": 69.7608,
    "longitude": 61.5736,
    "timeZoneId": "Europe/Moscow"
  },
  {
    "code": "AMW",
    "name": "Ames Municipal",
    "cityCode": "AMW",
    "countryCode": "US",
    "latitude": 42.0,
    "longitude": -93.6167,
    "timeZoneId": "America/Chicago"
  },
  {
    "code": "AMX",
    "name": "Ammaroo",
    "cityCode": "AMX",
    "countryCode": "AU",
    "latitude": -21.74,
    "longitude": 135.24,
    "timeZoneId": "Australia/Darwin"
  },
  {
    "code": "AMY",
    "name": "Ambatomainty",
    "cityCode": "AMY",
    "countryCode": "MG",
    "latitude": -17.6833,
    "longitude": 45.6667,
    "timeZoneId": "Indian/Antananarivo"
  },
  {
    "code": "AMZ",
    "name": "Ardmore",
    "cityCode": "AMZ",
    "countryCode": "NZ",
    "latitude": -37.0333,
    "longitude": 174.9694,
    "timeZoneId": "Pacific/Auckland"
  },
  {
    "code": "ANA",
    "name": "Maasai Mara Angama",
    "cityCode": "ANA",
    "countryCode": "KE",
    "latitude": -1.2717,
    "longitude": 34.9553,
    "timeZoneId": "Africa/Nairobi"
  },
  {
    "code": "ANB",
    "name": "Anniston Regional",
    "cityCode": "ANB",
    "countryCode": "US",
    "latitude": 33.5883,
    "longitude": -85.8583,
    "timeZoneId": "America/Chicago"
  },
  {
    "code": "ANC",
    "name": "Anchorage",
    "cityCode": "ANC",
    "countryCode": "US",
    "latitude": 61.1744,
    "longitude": -149.9964,
    "timeZoneId": "America/Anchorage"
  },
  {
    "code": "AND",
    "name": "Anderson Regional",
    "cityCode": "AND",
    "countryCode": "US",
    "latitude": 34.5,
    "longitude": -82.7167,
    "timeZoneId": "America/New_York"
  },
  {
    "code": "ANE",
    "name": "Angers Marce",
    "cityCode": "ANE",
    "countryCode": "FR",
    "latitude": 47.5603,
    "longitude": -0.3122,
    "timeZoneId": "Europe/Paris"
  },
  {
    "code": "ANF",
    "name": "Antofagasta",
    "cityCode": "ANF",
    "countryCode": "CL",
    "latitude": -23.4444,
    "longitude": -70.445,
    "timeZoneId": "America/Santiago"
  },
  {
    "code": "ANG",
    "name": "Angouleme Brie-Champniers",
    "cityCode": "ANG",
    "countryCode": "FR",
    "latitude": 45.7294,
    "longitude": 0.2192,
    "timeZoneId": "Europe/Paris"
  },
  {
    "code": "ANH",
    "name": "Anuha Island Resort",
    "cityCode": "ANH",
    "countryCode": "SB",
    "latitude": -8.9833,
    "longitude": 160.5,
    "timeZoneId": "Pacific/Guadalcanal"
  },
  {
    "code": "ANI",
    "name": "Aniak",
    "cityCode": "ANI",
    "countryCode": "US",
    "latitude": 61.5822,
    "longitude": -159.5442,
    "timeZoneId": "America/Anchorage"
  },
  {
    "code": "ANJ",
    "name": "Zanaga",
    "cityCode": "ANJ",
    "countryCode": "CG",
    "latitude": -2.85,
    "longitude": 13.8333,
    "timeZoneId": "Africa/Brazzaville"
  },
  {
    "code": "ANK",
    "name": "Ankara Etimesgut Apt",
    "cityCode": "ANK",
    "countryCode": "TR",
    "latitude": 39.9528,
    "longitude": 32.6861,
    "timeZoneId": "Europe/Istanbul"
  },
  {
    "code": "ANL",
    "name": "Andulo",
    "cityCode": "ANL",
    "countryCode": "AO",
    "latitude": -11.5,
    "longitude": 16.75,
    "timeZoneId": "Africa/Luanda"
  },
  {
    "code": "ANM",
    "name": "Antalaha Antsirabato",
    "cityCode": "ANM",
    "countryCode": "MG",
    "latitude": -14.9994,
    "longitude": 50.3203,
    "timeZoneId": "Indian/Antananarivo"
  },
  {
    "code": "ANN",
    "name": "Annette Island",
    "cityCode": "ANN",
    "countryCode": "US",
    "latitude": 55.0333,
    "longitude": -131.5667,
    "timeZoneId": "America/Anchorage"
  },
  {
    "code": "ANO",
    "name": "Angoche",
    "cityCode": "ANO",
    "countryCode": "MZ",
    "latitude": -16.1667,
    "longitude": 39.9333,
    "timeZoneId": "Africa/Maputo"
  },
  {
    "code": "ANP",
    "name": "Annapolis Lee",
    "cityCode": "ANP",
    "countryCode": "US",
    "latitude": 38.9833,
    "longitude": -76.5,
    "timeZoneId": "America/New_York"
  },
  {
    "code": "ANQ",
    "name": "Angola Tri-State Steuben Co.",
    "cityCode": "ANQ",
    "countryCode": "US",
    "latitude": 41.6333,
    "longitude": -85.0,
    "timeZoneId": "America/New_York"
  },
  {
    "code": "ANR",
    "name": "Antwerp-Brussels North",
    "cityCode": "ANR",
    "countryCode": "BE",
    "latitude": 51.1894,
    "longitude": 4.4603,
    "timeZoneId": "Europe/Brussels"
  },
  {
    "code": "ANS",
    "name": "Andahuaylas",
    "cityCode": "ANS",
    "countryCode": "PE",
    "latitude": -13.7064,
    "longitude": -73.3503,
    "timeZoneId": "America/Lima"
  },
  {
    "code": "ANT",
    "name": "St Anton Heliport",
    "cityCode": "ANT",
    "countryCode": "AT",
    "latitude": 47.1208,
    "longitude": 10.2417,
    "timeZoneId": "Europe/Vienna"
  },
  {
    "code": "ANU",
    "name": "Antigua",
    "cityCode": "ANU",
    "countryCode": "AG",
    "latitude": 17.1367,
    "longitude": -61.7928,
    "timeZoneId": "America/Antigua"
  },
  {
    "code": "ANV",
    "name": "Anvik",
    "cityCode": "ANV",
    "countryCode": "US",
    "latitude": 62.6492,
    "longitude": -160.1897,
    "timeZoneId": "America/Anchorage"
  },
  {
    "code": "ANW",
    "name": "Ainsworth Regional",
    "cityCode": "ANW",
    "countryCode": "US",
    "latitude": 42.5833,
    "longitude": -99.9833,
    "timeZoneId": "America/Chicago"
  },
  {
    "code": "ANX",
    "name": "Andenes Andoya",
    "cityCode": "ANX",
    "countryCode": "NO",
    "latitude": 69.2925,
    "longitude": 16.1442,
    "timeZoneId": "Europe/Oslo"
  },
  {
    "code": "ANY",
    "name": "Anthony Municipal",
    "cityCode": "ANY",
    "countryCode": "US",
    "latitude": 37.15,
    "longitude": -98.0333,
    "timeZoneId": "America/Chicago"
  },
  {
    "code": "ANZ",
    "name": "Angus Downs Station",
    "cityCode": "ANZ",
    "countryCode": "AU",
    "latitude": -25.0833,
    "longitude": 132.1667,
    "timeZoneId": "Australia/Darwin"
  },
  {
    "code": "AOA",
    "name": "Aroa",
    "cityCode": "AOA",
    "countryCode": "PG",
    "latitude": -9.0333,
    "longitude": 146.75,
    "timeZoneId": "Pacific/Port_Moresby"
  },
  {
    "code": "AOB",
    "name": "Annanberg",
    "cityCode": "AOB",
    "countryCode": "PG",
    "latitude": -4.9167,
    "longitude": 144.6667,
    "timeZoneId": "Pacific/Port_Moresby"
  },
  {
    "code": "AOC",
    "name": "Altenburg Nobitz",
    "cityCode": "AOC",
    "countryCode": "DE",
    "latitude": 50.9819,
    "longitude": 12.5064,
    "timeZoneId": "Europe/Berlin"
  },
  {
    "code": "AOD",
    "name": "Abou Deia",
    "cityCode": "AOD",
    "countryCode": "TD",
    "latitude": 11.4667,
    "longitude": 19.2833,
    "timeZoneId": "Africa/Ndjamena"
  },
  {
    "code": "AOE",
    "name": "Eskisehir Anadolu",
    "cityCode": "AOE",
    "countryCode": "TR",
    "latitude": 39.81,
    "longitude": 30.5169,
    "timeZoneId": "Europe/Istanbul"
  },
  {
    "code": "AOG",
    "name": "Anshan Teng'ao",
    "cityCode": "AOG",
    "countryCode": "CN",
    "latitude": 41.1056,
    "longitude": 122.8561,
    "timeZoneId": "Asia/Shanghai"
  },
  {
    "code": "AOH",
    "name": "Lima Allen County",
    "cityCode": "AOH",
    "countryCode": "US",
    "latitude": 40.7167,
    "longitude": -84.0333,
    "timeZoneId": "America/New_York"
  },
  {
    "code": "AOI",
    "name": "Ancona",
    "cityCode": "AOI",
    "countryCode": "IT",
    "latitude": 43.6167,
    "longitude": 13.3603,
    "timeZoneId": "Europe/Rome"
  },
  {
    "code": "AOJ",
    "name": "Aomori Airport",
    "cityCode": "AOJ",
    "countryCode": "JP",
    "latitude": 40.7347,
    "longitude": 140.6908,
    "timeZoneId": "Asia/Tokyo"
  },
  {
    "code": "AOK",
    "name": "Karpathos",
    "cityCode": "AOK",
    "countryCode": "GR",
    "latitude": 35.4214,
    "longitude": 27.1461,
    "timeZoneId": "Europe/Athens"
  },
  {
    "code": "AOL",
    "name": "Paso De Los Libres",
    "cityCode": "AOL",
    "countryCode": "AR",
    "latitude": -29.6833,
    "longitude": -57.15,
    "timeZoneId": "America/Argentina/Buenos_Aires"
  },
  {
    "code": "AOM",
    "name": "Adam",
    "cityCode": "AOM",
    "countryCode": "OM",
    "latitude": 22.4972,
    "longitude": 57.3833,
    "timeZoneId": "Asia/Muscat"
  },
  {
    "code": "AON",
    "name": "Arona",
    "cityCode": "AON",
    "countryCode": "PG",
    "latitude": -6.25,
    "longitude": 145.9667,
    "timeZoneId": "Pacific/Port_Moresby"
  },
  {
    "code": "AOO",
    "name": "Altoona Blair County",
    "cityCode": "AOO",
    "countryCode": "US",
    "latitude": 40.2964,
    "longitude": -78.32,
    "timeZoneId": "America/New_York"
  },
  {
    "code": "AOP",
    "name": "Andoas Alfredo V. Sara Bauer",
    "cityCode": "AOP",
    "countryCode": "PE",
    "latitude": -2.7914,
    "longitude": -76.4747,
    "timeZoneId": "America/Lima"
  },
  {
    "code": "AOQ",
    "name": "Aappilattoq-Upernavik Heliport",
    "cityCode": "AOQ",
    "countryCode": "GL",
    "latitude": 72.8869,
    "longitude": -55.5961,
    "timeZoneId": "America/Godthab"
  },
  {
    "code": "AOR",
    "name": "Alor Setar",
    "cityCode": "AOR",
    "countryCode": "MY",
    "latitude": 6.1944,
    "longitude": 100.4008,
    "timeZoneId": "Asia/Kuching"
  },
  {
    "code": "AOS",
    "name": "Amook Bay Sea Plane Base",
    "cityCode": "AOS",
    "countryCode": "US",
    "latitude": 57.4711,
    "longitude": -153.8156,
    "timeZoneId": "America/Anchorage"
  },
  {
    "code": "AOU",
    "name": "Attapeu",
    "cityCode": "AOU",
    "countryCode": "LA",
    "latitude": 14.82,
    "longitude": 106.8206,
    "timeZoneId": "Asia/Vientiane"
  },
  {
    "code": "APA",
    "name": "Denver Centennial Airport",
    "cityCode": "DEN",
    "countryCode": "US",
    "latitude": 39.5719,
    "longitude": -104.8511,
    "timeZoneId": "America/Denver"
  },
  {
    "code": "APB",
    "name": "Apolo",
    "cityCode": "APB",
    "countryCode": "BO",
    "latitude": -14.7167,
    "longitude": -68.5,
    "timeZoneId": "America/La_Paz"
  },
  {
    "code": "APC",
    "name": "Napa County",
    "cityCode": "APC",
    "countryCode": "US",
    "latitude": 38.2133,
    "longitude": -122.28,
    "timeZoneId": "America/Los_Angeles"
  },
  {
    "code": "APD",
    "name": "Bone Arung Palakka Airport",
    "cityCode": "APD",
    "countryCode": "ID",
    "latitude": -4.4583,
    "longitude": 120.3075,
    "timeZoneId": "Asia/Makassar"
  },
  {
    "code": "APE",
    "name": "San Juan Aposento",
    "cityCode": "APE",
    "countryCode": "PE",
    "latitude": -15.35,
    "longitude": -75.1667,
    "timeZoneId": "America/Lima"
  },
  {
    "code": "APF",
    "name": "Naples Municipal",
    "cityCode": "APF",
    "countryCode": "US",
    "latitude": 26.1533,
    "longitude": -81.7753,
    "timeZoneId": "America/New_York"
  },
  {
    "code": "APG",
    "name": "Aberdeen Phillips Aaf",
    "cityCode": "APG",
    "countryCode": "US",
    "latitude": 39.5167,
    "longitude": -76.1667,
    "timeZoneId": "America/New_York"
  },
  {
    "code": "APH",
    "name": "Bowling Green A.P. Hill Aaf",
    "cityCode": "APH",
    "countryCode": "US",
    "latitude": 38.05,
    "longitude": -77.35,
    "timeZoneId": "America/New_York"
  },
  {
    "code": "APJ",
    "name": "Ali Pulan",
    "cityCode": "APJ",
    "countryCode": "CN",
    "latitude": 30.3986,
    "longitude": 81.1325,
    "timeZoneId": "Asia/Shanghai"
  },
  {
    "code": "APK",
    "name": "Apataki",
    "cityCode": "APK",
    "countryCode": "PF",
    "latitude": -15.5736,
    "longitude": -146.4153,
    "timeZoneId": "Pacific/Tahiti"
  },
  {
    "code": "APL",
    "name": "Nampula",
    "cityCode": "APL",
    "countryCode": "MZ",
    "latitude": -15.1056,
    "longitude": 39.2817,
    "timeZoneId": "Africa/Maputo"
  },
  {
    "code": "APN",
    "name": "Alpena",
    "cityCode": "APN",
    "countryCode": "US",
    "latitude": 45.0781,
    "longitude": -83.5603,
    "timeZoneId": "America/New_York"
  },
  {
    "code": "APO",
    "name": "Apartado Carepa-A.R. Betancourt",
    "cityCode": "APO",
    "countryCode": "CO",
    "latitude": 7.8125,
    "longitude": -76.7167,
    "timeZoneId": "America/Bogota"
  },
  {
    "code": "APP",
    "name": "Asapa",
    "cityCode": "APP",
    "countryCode": "PG",
    "latitude": -8.9833,
    "longitude": 148.1333,
    "timeZoneId": "Pacific/Port_Moresby"
  },
  {
    "code": "APQ",
    "name": "Arapiraca",
    "cityCode": "APQ",
    "countryCode": "BR",
    "latitude": -9.75,
    "longitude": -36.65,
    "timeZoneId": "America/Sao_Paulo"
  },
  {
    "code": "APR",
    "name": "April River",
    "cityCode": "APR",
    "countryCode": "PG",
    "latitude": -4.6769,
    "longitude": 142.5397,
    "timeZoneId": "Pacific/Port_Moresby"
  },
  {
    "code": "APS",
    "name": "Anapolis",
    "cityCode": "APS",
    "countryCode": "BR",
    "latitude": -16.3628,
    "longitude": -48.9275,
    "timeZoneId": "America/Sao_Paulo"
  },
  {
    "code": "APT",
    "name": "Jasper Marion County",
    "cityCode": "APT",
    "countryCode": "US",
    "latitude": 35.0667,
    "longitude": -85.6333,
    "timeZoneId": "America/Chicago"
  },
  {
    "code": "APU",
    "name": "Apucarana Captain Joao Busse",
    "cityCode": "APU",
    "countryCode": "BR",
    "latitude": -23.55,
    "longitude": -51.4833,
    "timeZoneId": "America/Sao_Paulo"
  },
  {
    "code": "APV",
    "name": "Apple Valley",
    "cityCode": "APV",
    "countryCode": "US",
    "latitude": 34.5783,
    "longitude": -117.1867,
    "timeZoneId": "America/Los_Angeles"
  },
  {
    "code": "APW",
    "name": "Apia Faleolo Apt",
    "cityCode": "APW",
    "countryCode": "WS",
    "latitude": -13.8297,
    "longitude": -171.9972,
    "timeZoneId": "Pacific/Apia"
  },
  {
    "code": "APX",
    "name": "Arapongas Alberto Bertelli",
    "cityCode": "APX",
    "countryCode": "BR",
    "latitude": -23.3833,
    "longitude": -51.95,
    "timeZoneId": "America/Sao_Paulo"
  },
  {
    "code": "APY",
    "name": "Alto Parnaiba",
    "cityCode": "APY",
    "countryCode": "BR",
    "latitude": -9.1,
    "longitude": -45.9667,
    "timeZoneId": "America/Sao_Paulo"
  },
  {
    "code": "APZ",
    "name": "Zapala",
    "cityCode": "APZ",
    "countryCode": "AR",
    "latitude": -38.9167,
    "longitude": -70.0833,
    "timeZoneId": "America/Argentina/Buenos_Aires"
  },
  {
    "code": "AQA",
    "name": "Araraquara Bartolomeu De Gusmao",
    "cityCode": "AQA",
    "countryCode": "BR",
    "latitude": -21.8119,
    "longitude": -48.1331,
    "timeZoneId": "America/Sao_Paulo"
  },
  {
    "code": "AQB",
    "name": "Quiche",
    "cityCode": "AQB",
    "countryCode": "GT",
    "latitude": 15.01,
    "longitude": -91.15,
    "timeZoneId": "America/Guatemala"
  },
  {
    "code": "AQG",
    "name": "Anqing Tianzhushan",
    "cityCode": "AQG",
    "countryCode": "CN",
    "latitude": 30.5825,
    "longitude": 117.0503,
    "timeZoneId": "Asia/Shanghai"
  },
  {
    "code": "AQI",
    "name": "Qaisumah Hafar Al Batin",
    "cityCode": "AQI",
    "countryCode": "SA",
    "latitude": 28.3353,
    "longitude": 46.125,
    "timeZoneId": "Asia/Riyadh"
  },
  {
    "code": "AQJ",
    "name": "Aqaba King Hussein International",
    "cityCode": "AQJ",
    "countryCode": "JO",
    "latitude": 29.6117,
    "longitude": 35.0181,
    "timeZoneId": "Asia/Amman"
  },
  {
    "code": "AQL",
    "name": "Almeria Bus Station",
    "cityCode": "LEI",
    "countryCode": "ES",
    "latitude": 36.8353,
    "longitude": -2.4569,
    "timeZoneId": "Europe/Madrid"
  },
  {
    "code": "AQM",
    "name": "Ariquemes",
    "cityCode": "AQM",
    "countryCode": "BR",
    "latitude": -9.9333,
    "longitude": -63.0667,
    "timeZoneId": "America/Porto_Velho"
  },
  {
    "code": "AQP",
    "name": "Arequipa Rodriguez Ballon Intl",
    "cityCode": "AQP",
    "countryCode": "PE",
    "latitude": -16.3408,
    "longitude": -71.5725,
    "timeZoneId": "America/Lima"
  },
  {
    "code": "AQS",
    "name": "Saqani",
    "cityCode": "AQS",
    "countryCode": "FJ",
    "latitude": -16.75,
    "longitude": 179.35,
    "timeZoneId": "Pacific/Fiji"
  },
  {
    "code": "AQT",
    "name": "Quang Tri",
    "cityCode": "AQT",
    "countryCode": "VN",
    "latitude": 16.8936,
    "longitude": 107.1108,
    "timeZoneId": "Asia/Ho_Chi_Minh"
  },
  {
    "code": "AQY",
    "name": "Girdwood",
    "cityCode": "AQY",
    "countryCode": "US",
    "latitude": 60.9667,
    "longitude": -149.1167,
    "timeZoneId": "America/Anchorage"
  },
  {
    "code": "ARA",
    "name": "New Iberia Acadiana Regional",
    "cityCode": "ARA",
    "countryCode": "US",
    "latitude": 30.0428,
    "longitude": -91.8853,
    "timeZoneId": "America/Chicago"
  },
  {
    "code": "ARB",
    "name": "Ann Arbor Municipal",
    "cityCode": "ARB",
    "countryCode": "US",
    "latitude": 42.2236,
    "longitude": -83.7458,
    "timeZoneId": "America/New_York"
  },
  {
    "code": "ARC",
    "name": "Arctic Village",
    "cityCode": "ARC",
    "countryCode": "US",
    "latitude": 68.1147,
    "longitude": -145.5794,
    "timeZoneId": "America/Anchorage"
  },
  {
    "code": "ARD",
    "name": "Alor Mali",
    "cityCode": "ARD",
    "countryCode": "ID",
    "latitude": -8.1331,
    "longitude": 124.5969,
    "timeZoneId": "Asia/Makassar"
  },
  {
    "code": "ARE",
    "name": "Arecibo Antonio Juarbe Pol",
    "cityCode": "ARE",
    "countryCode": "PR",
    "latitude": 18.45,
    "longitude": -66.6667,
    "timeZoneId": "America/Puerto_Rico"
  },
  {
    "code": "ARF",
    "name": "Acaricuara",
    "cityCode": "ARF",
    "countryCode": "CO",
    "latitude": 0.5333,
    "longitude": -70.1333,
    "timeZoneId": "America/Bogota"
  },
  {
    "code": "ARG",
    "name": "Walnut Ridge Regional",
    "cityCode": "ARG",
    "countryCode": "US",
    "latitude": 36.1167,
    "longitude": -90.9167,
    "timeZoneId": "America/Chicago"
  },
  {
    "code": "ARH",
    "name": "Arkhangelsk",
    "cityCode": "ARH",
    "countryCode": "RU",
    "latitude": 64.6003,
    "longitude": 40.7167,
    "timeZoneId": "Europe/Moscow"
  },
  {
    "code": "ARI",
    "name": "Arica",
    "cityCode": "ARI",
    "countryCode": "CL",
    "latitude": -18.3486,
    "longitude": -70.3386,
    "timeZoneId": "America/Santiago"
  },
  {
    "code": "ARJ",
    "name": "Arso",
    "cityCode": "ARJ",
    "countryCode": "ID",
    "latitude": -2.9333,
    "longitude": 140.7833,
    "timeZoneId": "Asia/Jayapura"
  },
  {
    "code": "ARK",
    "name": "Arusha",
    "cityCode": "ARK",
    "countryCode": "TZ",
    "latitude": -3.3672,
    "longitude": 36.625,
    "timeZoneId": "Africa/Dar_es_Salaam"
  },
  {
    "code": "ARL",
    "name": "Arly",
    "cityCode": "ARL",
    "countryCode": "BF",
    "latitude": 11.5964,
    "longitude": 1.4811,
    "timeZoneId": "Africa/Ouagadougou"
  },
  {
    "code": "ARM",
    "name": "Armidale",
    "cityCode": "ARM",
    "countryCode": "AU",
    "latitude": -30.5281,
    "longitude": 151.6172,
    "timeZoneId": "Australia/Sydney"
  },
  {
    "code": "ARN",
    "name": "Stockholm",
    "cityCode": "STO",
    "countryCode": "SE",
    "latitude": 59.6519,
    "longitude": 17.9186,
    "timeZoneId": "Europe/Stockholm"
  },
  {
    "code": "ARO",
    "name": "Arboletes",
    "cityCode": "ARO",
    "countryCode": "CO",
    "latitude": 8.8667,
    "longitude": -76.4333,
    "timeZoneId": "America/Bogota"
  },
  {
    "code": "ARP",
    "name": "Aragip",
    "cityCode": "ARP",
    "countryCode": "PG",
    "latitude": -9.9,
    "longitude": 149.4667,
    "timeZoneId": "Pacific/Port_Moresby"
  },
  {
    "code": "ARQ",
    "name": "Arauquita El Troncal",
    "cityCode": "ARQ",
    "countryCode": "CO",
    "latitude": 7.0361,
    "longitude": -71.4403,
    "timeZoneId": "America/Bogota"
  },
  {
    "code": "ARR",
    "name": "Alto Rio Senguer",
    "cityCode": "ARR",
    "countryCode": "AR",
    "latitude": -45.1361,
    "longitude": -70.8122,
    "timeZoneId": "America/Argentina/Buenos_Aires"
  },
  {
    "code": "ARS",
    "name": "Aragarcas",
    "cityCode": "ARS",
    "countryCode": "BR",
    "latitude": -15.9167,
    "longitude": -52.25,
    "timeZoneId": "America/Sao_Paulo"
  },
  {
    "code": "ART",
    "name": "Watertown",
    "cityCode": "ART",
    "countryCode": "US",
    "latitude": 43.9919,
    "longitude": -76.0217,
    "timeZoneId": "America/New_York"
  },
  {
    "code": "ARU",
    "name": "Aracatuba Dario Guarita",
    "cityCode": "ARU",
    "countryCode": "BR",
    "latitude": -21.1414,
    "longitude": -50.4247,
    "timeZoneId": "America/Sao_Paulo"
  },
  {
    "code": "ARV",
    "name": "Minocqua/Woodruff Lakeland",
    "cityCode": "ARV",
    "countryCode": "US",
    "latitude": 45.9167,
    "longitude": -89.7333,
    "timeZoneId": "America/Chicago"
  },
  {
    "code": "ARW",
    "name": "Arad",
    "cityCode": "ARW",
    "countryCode": "RO",
    "latitude": 46.1767,
    "longitude": 21.2619,
    "timeZoneId": "Europe/Bucharest"
  },
  {
    "code": "ARX",
    "name": "Aracati Dragao Do Mar",
    "cityCode": "ARX",
    "countryCode": "BR",
    "latitude": -4.5692,
    "longitude": -37.8056,
    "timeZoneId": "America/Sao_Paulo"
  },
  {
    "code": "ARY",
    "name": "Ararat",
    "cityCode": "ARY",
    "countryCode": "AU",
    "latitude": -37.2833,
    "longitude": 142.9333,
    "timeZoneId": "Australia/Sydney"
  },
  {
    "code": "ARZ",
    "name": "N'zeto",
    "cityCode": "ARZ",
    "countryCode": "AO",
    "latitude": -7.2167,
    "longitude": 12.8667,
    "timeZoneId": "Africa/Luanda"
  },
  {
    "code": "ASA",
    "name": "Assab International",
    "cityCode": "ASA",
    "countryCode": "ER",
    "latitude": 13.0717,
    "longitude": 42.645,
    "timeZoneId": "Africa/Asmara"
  },
  {
    "code": "ASB",
    "name": "Ashgabat",
    "cityCode": "ASB",
    "countryCode": "TM",
    "latitude": 37.9869,
    "longitude": 58.3608,
    "timeZoneId": "Asia/Ashgabat"
  },
  {
    "code": "ASC",
    "name": "Ascension",
    "cityCode": "ASC",
    "countryCode": "BO",
    "latitude": -15.9306,
    "longitude": -63.1569,
    "timeZoneId": "America/La_Paz"
  },
  {
    "code": "ASD",
    "name": "Andros Town International",
    "cityCode": "ASD",
    "countryCode": "BS",
    "latitude": 24.6983,
    "longitude": -77.7956,
    "timeZoneId": "America/Nassau"
  },
  {
    "code": "ASE",
    "name": "Aspen",
    "cityCode": "ASE",
    "countryCode": "US",
    "latitude": 39.2192,
    "longitude": -106.8672,
    "timeZoneId": "America/Denver"
  },
  {
    "code": "ASF",
    "name": "Astrakhan",
    "cityCode": "ASF",
    "countryCode": "RU",
    "latitude": 46.2833,
    "longitude": 48.0064,
    "timeZoneId": "Europe/Volgograd"
  },
  {
    "code": "ASG",
    "name": "Ashburton",
    "cityCode": "ASG",
    "countryCode": "NZ",
    "latitude": -43.9,
    "longitude": 171.7833,
    "timeZoneId": "Pacific/Auckland"
  },
  {
    "code": "ASH",
    "name": "Nashua Boire Field",
    "cityCode": "ASH",
    "countryCode": "US",
    "latitude": 42.7833,
    "longitude": -71.5167,
    "timeZoneId": "America/New_York"
  },
  {
    "code": "ASI",
    "name": "Ascension Island Raf Station",
    "cityCode": "ASI",
    "countryCode": "SH",
    "latitude": -7.9667,
    "longitude": -14.4,
    "timeZoneId": "Atlantic/St_Helena"
  },
  {
    "code": "ASJ",
    "name": "Amami",
    "cityCode": "ASJ",
    "countryCode": "JP",
    "latitude": 28.4306,
    "longitude": 129.7125,
    "timeZoneId": "Asia/Tokyo"
  },
  {
    "code": "ASK",
    "name": "Yamoussoukro",
    "cityCode": "ASK",
    "countryCode": "CI",
    "latitude": 6.9039,
    "longitude": -5.3656,
    "timeZoneId": "Africa/Abidjan"
  },
  {
    "code": "ASL",
    "name": "Marshall Harrison County",
    "cityCode": "ASL",
    "countryCode": "US",
    "latitude": 32.55,
    "longitude": -94.3667,
    "timeZoneId": "America/Chicago"
  },
  {
    "code": "ASM",
    "name": "Asmara",
    "cityCode": "ASM",
    "countryCode": "ER",
    "latitude": 15.2919,
    "longitude": 38.9106,
    "timeZoneId": "Africa/Asmara"
  },
  {
    "code": "ASN",
    "name": "Talladega Municipal",
    "cityCode": "ASN",
    "countryCode": "US",
    "latitude": 33.4333,
    "longitude": -86.1,
    "timeZoneId": "America/Chicago"
  },
  {
    "code": "ASO",
    "name": "Asosa",
    "cityCode": "ASO",
    "countryCode": "ET",
    "latitude": 10.0186,
    "longitude": 34.5864,
    "timeZoneId": "Africa/Addis_Ababa"
  },
  {
    "code": "ASP",
    "name": "Alice Springs",
    "cityCode": "ASP",
    "countryCode": "AU",
    "latitude": -23.8067,
    "longitude": 133.9022,
    "timeZoneId": "Australia/Darwin"
  },
  {
    "code": "ASQ",
    "name": "Austin",
    "cityCode": "ASQ",
    "countryCode": "US",
    "latitude": 39.5,
    "longitude": -117.0667,
    "timeZoneId": "America/Los_Angeles"
  },
  {
    "code": "ASR",
    "name": "Kayseri",
    "cityCode": "ASR",
    "countryCode": "TR",
    "latitude": 38.7703,
    "longitude": 35.4956,
    "timeZoneId": "Europe/Istanbul"
  },
  {
    "code": "ASS",
    "name": "Arathusa Safari Lodge",
    "cityCode": "ASS",
    "countryCode": "ZA",
    "latitude": -24.7411,
    "longitude": 31.5183,
    "timeZoneId": "Africa/Johannesburg"
  },
  {
    "code": "AST",
    "name": "Astoria Regional",
    "cityCode": "AST",
    "countryCode": "US",
    "latitude": 46.1592,
    "longitude": -123.8811,
    "timeZoneId": "America/Los_Angeles"
  },
  {
    "code": "ASU",
    "name": "Asuncion",
    "cityCode": "ASU",
    "countryCode": "PY",
    "latitude": -25.2397,
    "longitude": -57.5192,
    "timeZoneId": "America/Asuncion"
  },
  {
    "code": "ASV",
    "name": "Amboseli",
    "cityCode": "ASV",
    "countryCode": "KE",
    "latitude": -2.645,
    "longitude": 37.2528,
    "timeZoneId": "Africa/Nairobi"
  },
  {
    "code": "ASW",
    "name": "Aswan",
    "cityCode": "ASW",
    "countryCode": "EG",
    "latitude": 23.9644,
    "longitude": 32.82,
    "timeZoneId": "Africa/Cairo"
  },
  {
    "code": "ASX",
    "name": "Ashland John F Kennedy Memorial",
    "cityCode": "ASX",
    "countryCode": "US",
    "latitude": 46.55,
    "longitude": -90.9167,
    "timeZoneId": "America/Chicago"
  },
  {
    "code": "ASY",
    "name": "Ashley Municipal",
    "cityCode": "ASY",
    "countryCode": "US",
    "latitude": 46.0333,
    "longitude": -99.3667,
    "timeZoneId": "America/Chicago"
  },
  {
    "code": "ASZ",
    "name": "Asirim",
    "cityCode": "ASZ",
    "countryCode": "PG",
    "latitude": -6.0097,
    "longitude": 150.3686,
    "timeZoneId": "Pacific/Port_Moresby"
  },
  {
    "code": "ATA",
    "name": "Huaraz German Arias Graziani",
    "cityCode": "ATA",
    "countryCode": "PE",
    "latitude": -9.3506,
    "longitude": -77.5975,
    "timeZoneId": "America/Lima"
  },
  {
    "code": "ATB",
    "name": "Atbara",
    "cityCode": "ATB",
    "countryCode": "SD",
    "latitude": 17.7097,
    "longitude": 34.0572,
    "timeZoneId": "Africa/Khartoum"
  },
  {
    "code": "ATC",
    "name": "Arthur's Town",
    "cityCode": "ATC",
    "countryCode": "BS",
    "latitude": 24.6294,
    "longitude": -75.6739,
    "timeZoneId": "America/Nassau"
  },
  {
    "code": "ATD",
    "name": "Atoifi",
    "cityCode": "ATD",
    "countryCode": "SB",
    "latitude": -8.8733,
    "longitude": 161.0114,
    "timeZoneId": "Pacific/Guadalcanal"
  },
  {
    "code": "ATE",
    "name": "Antlers Municipal",
    "cityCode": "ATE",
    "countryCode": "US",
    "latitude": 34.2333,
    "longitude": -95.6167,
    "timeZoneId": "America/Chicago"
  },
  {
    "code": "ATF",
    "name": "Ambato Chachoan",
    "cityCode": "ATF",
    "countryCode": "EC",
    "latitude": -1.2,
    "longitude": -78.5667,
    "timeZoneId": "America/Guayaquil"
  },
  {
    "code": "ATG",
    "name": "Attock Minhas",
    "cityCode": "ATG",
    "countryCode": "PK",
    "latitude": 33.9,
    "longitude": 72.25,
    "timeZoneId": "Asia/Karachi"
  },
  {
    "code": "ATH",
    "name": "Athens",
    "cityCode": "ATH",
    "countryCode": "GR",
    "latitude": 37.9364,
    "longitude": 23.9444,
    "timeZoneId": "Europe/Athens"
  },
  {
    "code": "ATI",
    "name": "Artigas",
    "cityCode": "ATI",
    "countryCode": "UY",
    "latitude": -30.4167,
    "longitude": -56.5167,
    "timeZoneId": "America/Montevideo"
  },
  {
    "code": "ATJ",
    "name": "Antsirabe",
    "cityCode": "ATJ",
    "countryCode": "MG",
    "latitude": -19.8378,
    "longitude": 47.0653,
    "timeZoneId": "Indian/Antananarivo"
  },
  {
    "code": "ATK",
    "name": "Atqasuk E.Burnell Sr Memorial",
    "cityCode": "ATK",
    "countryCode": "US",
    "latitude": 70.4672,
    "longitude": -157.4358,
    "timeZoneId": "America/Anchorage"
  },
  {
    "code": "ATL",
    "name": "Atlanta",
    "cityCode": "ATL",
    "countryCode": "US",
    "latitude": 33.6367,
    "longitude": -84.4281,
    "timeZoneId": "America/New_York"
  },
  {
    "code": "ATM",
    "name": "Altamira",
    "cityCode": "ATM",
    "countryCode": "BR",
    "latitude": -3.2539,
    "longitude": -52.2539,
    "timeZoneId": "America/Sao_Paulo"
  },
  {
    "code": "ATN",
    "name": "Namatanai",
    "cityCode": "ATN",
    "countryCode": "PG",
    "latitude": -3.6667,
    "longitude": 152.45,
    "timeZoneId": "Pacific/Port_Moresby"
  },
  {
    "code": "ATO",
    "name": "Athens Ohio University",
    "cityCode": "ATO",
    "countryCode": "US",
    "latitude": 39.3333,
    "longitude": -82.1,
    "timeZoneId": "America/New_York"
  },
  {
    "code": "ATP",
    "name": "Aitape Airstrip",
    "cityCode": "ATP",
    "countryCode": "PG",
    "latitude": -3.1333,
    "longitude": 142.35,
    "timeZoneId": "Pacific/Port_Moresby"
  },
  {
    "code": "ATQ",
    "name": "Amritsar",
    "cityCode": "ATQ",
    "countryCode": "IN",
    "latitude": 31.7097,
    "longitude": 74.7972,
    "timeZoneId": "Asia/Kolkata"
  },
  {
    "code": "ATR",
    "name": "Atar International",
    "cityCode": "ATR",
    "countryCode": "MR",
    "latitude": 20.5,
    "longitude": -13.05,
    "timeZoneId": "Africa/Nouakchott"
  },
  {
    "code": "ATS",
    "name": "Artesia Municipal",
    "cityCode": "ATS",
    "countryCode": "US",
    "latitude": 32.85,
    "longitude": -104.4667,
    "timeZoneId": "America/Denver"
  },
  {
    "code": "ATT",
    "name": "Atmautluak Airport",
    "cityCode": "ATT",
    "countryCode": "US",
    "latitude": 60.8669,
    "longitude": -162.2739,
    "timeZoneId": "America/Anchorage"
  },
  {
    "code": "ATU",
    "name": "Attu Island Casco Cove Cgs",
    "cityCode": "ATU",
    "countryCode": "US",
    "latitude": 52.8333,
    "longitude": 173.1833,
    "timeZoneId": "America/Adak"
  },
  {
    "code": "ATV",
    "name": "Ati",
    "cityCode": "ATV",
    "countryCode": "TD",
    "latitude": 13.2333,
    "longitude": 18.3167,
    "timeZoneId": "Africa/Ndjamena"
  },
  {
    "code": "ATW",
    "name": "Appleton",
    "cityCode": "ATW",
    "countryCode": "US",
    "latitude": 44.2667,
    "longitude": -88.5167,
    "timeZoneId": "America/Chicago"
  },
  {
    "code": "ATX",
    "name": "Atbasar",
    "cityCode": "ATX",
    "countryCode": "KZ",
    "latitude": 51.8833,
    "longitude": 68.4,
    "timeZoneId": "Asia/Qyzylorda"
  },
  {
    "code": "ATY",
    "name": "Watertown Regional",
    "cityCode": "ATY",
    "countryCode": "US",
    "latitude": 44.9136,
    "longitude": -97.1511,
    "timeZoneId": "America/Chicago"
  },
  {
    "code": "ATZ",
    "name": "Asyut",
    "cityCode": "ATZ",
    "countryCode": "EG",
    "latitude": 27.0464,
    "longitude": 31.0119,
    "timeZoneId": "Africa/Cairo"
  },
  {
    "code": "AUA",
    "name": "Aruba",
    "cityCode": "AUA",
    "countryCode": "AW",
    "latitude": 12.5014,
    "longitude": -70.0153,
    "timeZoneId": "America/Aruba"
  },
  {
    "code": "AUB",
    "name": "Augsburg Bus Terminal Bieberbachstrasse",
    "cityCode": "MUC",
    "countryCode": "DE",
    "latitude": 48.4025,
    "longitude": 10.8789,
    "timeZoneId": "Europe/Berlin"
  },
  {
    "code": "AUC",
    "name": "Arauca Santiago Perez Quiroz",
    "cityCode": "AUC",
    "countryCode": "CO",
    "latitude": 7.0689,
    "longitude": -70.7369,
    "timeZoneId": "America/Bogota"
  },
  {
    "code": "AUD",
    "name": "Augustus Downs",
    "cityCode": "AUD",
    "countryCode": "AU",
    "latitude": -18.6667,
    "longitude": 139.9333,
    "timeZoneId": "Australia/Brisbane"
  },
  {
    "code": "AUE",
    "name": "Abu Rudeis",
    "cityCode": "AUE",
    "countryCode": "EG",
    "latitude": 28.9667,
    "longitude": 33.1833,
    "timeZoneId": "Africa/Cairo"
  },
  {
    "code": "AUF",
    "name": "Auxerre Branches",
    "cityCode": "AUF",
    "countryCode": "FR",
    "latitude": 47.8464,
    "longitude": 3.4967,
    "timeZoneId": "Europe/Paris"
  },
  {
    "code": "AUG",
    "name": "Augusta State",
    "cityCode": "AUG",
    "countryCode": "US",
    "latitude": 44.3181,
    "longitude": -69.7969,
    "timeZoneId": "America/New_York"
  },
  {
    "code": "AUH",
    "name": "Abu Dhabi",
    "cityCode": "AUH",
    "countryCode": "AE",
    "latitude": 24.4331,
    "longitude": 54.6511,
    "timeZoneId": "Asia/Dubai"
  },
  {
    "code": "AUI",
    "name": "Aua Island",
    "cityCode": "AUI",
    "countryCode": "PG",
    "latitude": -1.45,
    "longitude": 143.0667,
    "timeZoneId": "Pacific/Port_Moresby"
  },
  {
    "code": "AUJ",
    "name": "Ambunti",
    "cityCode": "AUJ",
    "countryCode": "PG",
    "latitude": -4.2333,
    "longitude": 142.8333,
    "timeZoneId": "Pacific/Port_Moresby"
  },
  {
    "code": "AUK",
    "name": "Alakanuk Airport",
    "cityCode": "AUK",
    "countryCode": "US",
    "latitude": 62.6789,
    "longitude": -164.6508,
    "timeZoneId": "America/Anchorage"
  },
  {
    "code": "AUL",
    "name": "Aur Island",
    "cityCode": "AUL",
    "countryCode": "MH",
    "latitude": 8.3025,
    "longitude": 171.1614,
    "timeZoneId": "Pacific/Majuro"
  },
  {
    "code": "AUM",
    "name": "Austin Municipal",
    "cityCode": "AUM",
    "countryCode": "US",
    "latitude": 43.6667,
    "longitude": -92.9333,
    "timeZoneId": "America/Chicago"
  },
  {
    "code": "AUN",
    "name": "Auburn Municipal",
    "cityCode": "AUN",
    "countryCode": "US",
    "latitude": 38.9,
    "longitude": -121.0667,
    "timeZoneId": "America/Los_Angeles"
  },
  {
    "code": "AUO",
    "name": "Auburn University Regional",
    "cityCode": "AUO",
    "countryCode": "US",
    "latitude": 32.6167,
    "longitude": -85.4333,
    "timeZoneId": "America/Chicago"
  },
  {
    "code": "AUP",
    "name": "Agaun",
    "cityCode": "AUP",
    "countryCode": "PG",
    "latitude": -9.9167,
    "longitude": 149.3333,
    "timeZoneId": "Pacific/Port_Moresby"
  },
  {
    "code": "AUQ",
    "name": "Hiva Oa Atuona",
    "cityCode": "AUQ",
    "countryCode": "PF",
    "latitude": -9.7689,
    "longitude": -139.0114,
    "timeZoneId": "Pacific/Marquesas"
  },
  {
    "code": "AUR",
    "name": "Aurillac Airport",
    "cityCode": "AUR",
    "countryCode": "FR",
    "latitude": 44.8975,
    "longitude": 2.4167,
    "timeZoneId": "Europe/Paris"
  },
  {
    "code": "AUS",
    "name": "Austin-Bergstrom",
    "cityCode": "AUS",
    "countryCode": "US",
    "latitude": 30.1944,
    "longitude": -97.67,
    "timeZoneId": "America/Chicago"
  },
  {
    "code": "AUT",
    "name": "Atauro",
    "cityCode": "AUT",
    "countryCode": "TL",
    "latitude": -8.2667,
    "longitude": 125.6,
    "timeZoneId": "Asia/Dili"
  },
  {
    "code": "AUU",
    "name": "Aurukun",
    "cityCode": "AUU",
    "countryCode": "AU",
    "latitude": -13.3539,
    "longitude": 141.7208,
    "timeZoneId": "Australia/Brisbane"
  },
  {
    "code": "AUV",
    "name": "Aumo",
    "cityCode": "AUV",
    "countryCode": "PG",
    "latitude": -5.7167,
    "longitude": 148.4333,
    "timeZoneId": "Pacific/Port_Moresby"
  },
  {
    "code": "AUW",
    "name": "Wausau Downtown Apt",
    "cityCode": "AUW",
    "countryCode": "US",
    "latitude": 44.9283,
    "longitude": -89.6267,
    "timeZoneId": "America/Chicago"
  },
  {
    "code": "AUX",
    "name": "Araguaina Airport",
    "cityCode": "AUX",
    "countryCode": "BR",
    "latitude": -7.2281,
    "longitude": -48.2403,
    "timeZoneId": "America/Sao_Paulo"
  },
  {
    "code": "AUY",
    "name": "Anatom Island Airport",
    "cityCode": "AUY",
    "countryCode": "VU",
    "latitude": -20.2494,
    "longitude": 169.7708,
    "timeZoneId": "Pacific/Efate"
  },
  {
    "code": "AUZ",
    "name": "Aurora Municipal",
    "cityCode": "AUZ",
    "countryCode": "US",
    "latitude": 41.7667,
    "longitude": -88.3167,
    "timeZoneId": "America/Chicago"
  },
  {
    "code": "AVA",
    "name": "Anshun Huangguoshu",
    "cityCode": "AVA",
    "countryCode": "CN",
    "latitude": 26.2572,
    "longitude": 105.8728,
    "timeZoneId": "Asia/Shanghai"
  },
  {
    "code": "AVB",
    "name": "Aviano Air Base",
    "cityCode": "AVB",
    "countryCode": "IT",
    "latitude": 46.0319,
    "longitude": 12.5964,
    "timeZoneId": "Europe/Rome"
  },
  {
    "code": "AVF",
    "name": "Avoriaz Off-Line Point",
    "cityCode": "AVF",
    "countryCode": "FR",
    "latitude": 46.2,
    "longitude": 6.7667,
    "timeZoneId": "Europe/Paris"
  },
  {
    "code": "AVG",
    "name": "Auvergne Station",
    "cityCode": "AVG",
    "countryCode": "AU",
    "latitude": -15.75,
    "longitude": 129.9167,
    "timeZoneId": "Australia/Darwin"
  },
  {
    "code": "AVI",
    "name": "Ciego De Avila Maximo Gomez",
    "cityCode": "AVI",
    "countryCode": "CU",
    "latitude": 22.0269,
    "longitude": -78.7897,
    "timeZoneId": "America/Havana"
  },
  {
    "code": "AVJ",
    "name": "Avila Bus Station",
    "cityCode": "AVJ",
    "countryCode": "ES",
    "latitude": 40.6581,
    "longitude": -4.6897,
    "timeZoneId": "Europe/Madrid"
  },
  {
    "code": "AVK",
    "name": "Arvaikheer",
    "cityCode": "AVK",
    "countryCode": "MN",
    "latitude": 46.2667,
    "longitude": 102.7833,
    "timeZoneId": "Asia/Ulaanbaatar"
  },
  {
    "code": "AVL",
    "name": "Asheville",
    "cityCode": "AVL",
    "countryCode": "US",
    "latitude": 35.4361,
    "longitude": -82.5419,
    "timeZoneId": "America/New_York"
  },
  {
    "code": "AVN",
    "name": "Avignon Caumont",
    "cityCode": "AVN",
    "countryCode": "FR",
    "latitude": 43.9067,
    "longitude": 4.9019,
    "timeZoneId": "Europe/Paris"
  },
  {
    "code": "AVO",
    "name": "Avon Park Executive",
    "cityCode": "AVO",
    "countryCode": "US",
    "latitude": 27.6,
    "longitude": -81.5167,
    "timeZoneId": "America/New_York"
  },
  {
    "code": "AVP",
    "name": "Wilkes-Barre",
    "cityCode": "AVP",
    "countryCode": "US",
    "latitude": 41.3386,
    "longitude": -75.7233,
    "timeZoneId": "America/New_York"
  },
  {
    "code": "AVS",
    "name": "Avila Rail Station",
    "cityCode": "AVJ",
    "countryCode": "ES",
    "latitude": 40.6569,
    "longitude": -4.6833,
    "timeZoneId": "Europe/Madrid"
  },
  {
    "code": "AVT",
    "name": "Miami Aventura Brightline",
    "cityCode": "MIA",
    "countryCode": "US",
    "latitude": 25.9586,
    "longitude": -80.1472,
    "timeZoneId": "America/New_York"
  },
  {
    "code": "AVU",
    "name": "Avu Avu",
    "cityCode": "AVU",
    "countryCode": "SB",
    "latitude": -9.8414,
    "longitude": 160.3836,
    "timeZoneId": "Pacific/Guadalcanal"
  },
  {
    "code": "AVV",
    "name": "Melbourne Avalon Airport",
    "cityCode": "MEL",
    "countryCode": "AU",
    "latitude": -38.0394,
    "longitude": 144.4694,
    "timeZoneId": "Australia/Sydney"
  },
  {
    "code": "AVX",
    "name": "Avalon Catalina",
    "cityCode": "AVX",
    "countryCode": "US",
    "latitude": 33.405,
    "longitude": -118.4161,
    "timeZoneId": "America/Los_Angeles"
  },
  {
    "code": "AWA",
    "name": "Awasa",
    "cityCode": "AWA",
    "countryCode": "ET",
    "latitude": 7.0675,
    "longitude": 38.4906,
    "timeZoneId": "Africa/Addis_Ababa"
  },
  {
    "code": "AWB",
    "name": "Awaba",
    "cityCode": "AWB",
    "countryCode": "PG",
    "latitude": -8.0144,
    "longitude": 142.7511,
    "timeZoneId": "Pacific/Port_Moresby"
  },
  {
    "code": "AWD",
    "name": "Aniwa",
    "cityCode": "AWD",
    "countryCode": "VU",
    "latitude": -19.2375,
    "longitude": 169.6011,
    "timeZoneId": "Pacific/Efate"
  },
  {
    "code": "AWE",
    "name": "Alowe",
    "cityCode": "AWE",
    "countryCode": "GA",
    "latitude": -0.75,
    "longitude": 9.45,
    "timeZoneId": "Africa/Libreville"
  },
  {
    "code": "AWH",
    "name": "Awareh",
    "cityCode": "AWH",
    "countryCode": "ET",
    "latitude": 8.2667,
    "longitude": 44.1833,
    "timeZoneId": "Africa/Addis_Ababa"
  },
  {
    "code": "AWK",
    "name": "Wake Island",
    "cityCode": "AWK",
    "countryCode": "UM",
    "latitude": 19.3,
    "longitude": 166.5833,
    "timeZoneId": "Pacific/Wake"
  },
  {
    "code": "AWN",
    "name": "Alton Downs",
    "cityCode": "AWN",
    "countryCode": "AU",
    "latitude": -26.4833,
    "longitude": 139.3167,
    "timeZoneId": "Australia/Adelaide"
  },
  {
    "code": "AWP",
    "name": "Austral Downs Station",
    "cityCode": "AWP",
    "countryCode": "AU",
    "latitude": -20.3333,
    "longitude": 137.25,
    "timeZoneId": "Australia/Darwin"
  },
  {
    "code": "AWR",
    "name": "Awar",
    "cityCode": "AWR",
    "countryCode": "PG",
    "latitude": -4.1167,
    "longitude": 144.85,
    "timeZoneId": "Pacific/Port_Moresby"
  },
  {
    "code": "AWZ",
    "name": "Ahwaz",
    "cityCode": "AWZ",
    "countryCode": "IR",
    "latitude": 31.3375,
    "longitude": 48.7603,
    "timeZoneId": "Asia/Tehran"
  },
  {
    "code": "AXA",
    "name": "Anguilla Clayton J. Lloyd Intl",
    "cityCode": "AXA",
    "countryCode": "AI",
    "latitude": 18.2047,
    "longitude": -63.055,
    "timeZoneId": "America/Anguilla"
  },
  {
    "code": "AXB",
    "name": "Alexandria Bay Maxson Airfield",
    "cityCode": "AXB",
    "countryCode": "US",
    "latitude": 44.2525,
    "longitude": -75.9014,
    "timeZoneId": "America/New_York"
  },
  {
    "code": "AXC",
    "name": "Aramac",
    "cityCode": "AXC",
    "countryCode": "AU",
    "latitude": -23.0833,
    "longitude": 145.25,
    "timeZoneId": "Australia/Brisbane"
  },
  {
    "code": "AXD",
    "name": "Alexandroupolis",
    "cityCode": "AXD",
    "countryCode": "GR",
    "latitude": 40.8558,
    "longitude": 25.9564,
    "timeZoneId": "Europe/Athens"
  },
  {
    "code": "AXE",
    "name": "Xanxere Joao Winckler",
    "cityCode": "AXE",
    "countryCode": "BR",
    "latitude": -26.8833,
    "longitude": -52.3833,
    "timeZoneId": "America/Sao_Paulo"
  },
  {
    "code": "AXF",
    "name": "Alxa Left Banner",
    "cityCode": "AXF",
    "countryCode": "CN",
    "latitude": 38.8239,
    "longitude": 105.6261,
    "timeZoneId": "Asia/Shanghai"
  },
  {
    "code": "AXG",
    "name": "Algona Municipal",
    "cityCode": "AXG",
    "countryCode": "US",
    "latitude": 43.0667,
    "longitude": -94.2333,
    "timeZoneId": "America/Chicago"
  },
  {
    "code": "AXI",
    "name": "Algeciras Bus Station",
    "cityCode": "AEI",
    "countryCode": "ES",
    "latitude": 36.1264,
    "longitude": -5.4489,
    "timeZoneId": "Europe/Madrid"
  },
  {
    "code": "AXJ",
    "name": "Amakusa",
    "cityCode": "AXJ",
    "countryCode": "JP",
    "latitude": 32.4822,
    "longitude": 130.1589,
    "timeZoneId": "Asia/Tokyo"
  },
  {
    "code": "AXK",
    "name": "Ataq",
    "cityCode": "AXK",
    "countryCode": "YE",
    "latitude": 14.5522,
    "longitude": 46.8256,
    "timeZoneId": "Asia/Aden"
  },
  {
    "code": "AXL",
    "name": "Alexandria Station",
    "cityCode": "AXL",
    "countryCode": "AU",
    "latitude": -19.1167,
    "longitude": 136.7667,
    "timeZoneId": "Australia/Darwin"
  },
  {
    "code": "AXN",
    "name": "Alexandria Chandler Field",
    "cityCode": "AXN",
    "countryCode": "US",
    "latitude": 45.7833,
    "longitude": -95.2667,
    "timeZoneId": "America/Chicago"
  },
  {
    "code": "AXO",
    "name": "Alor Pantar",
    "cityCode": "ARD",
    "countryCode": "ID",
    "latitude": -8.2458,
    "longitude": 124.2186,
    "timeZoneId": "Asia/Makassar"
  },
  {
    "code": "AXR",
    "name": "Arutua",
    "cityCode": "AXR",
    "countryCode": "PF",
    "latitude": -15.2483,
    "longitude": -146.6167,
    "timeZoneId": "Pacific/Tahiti"
  },
  {
    "code": "AXS",
    "name": "Altus Quartz Mountain Rgnl",
    "cityCode": "LTS",
    "countryCode": "US",
    "latitude": 34.7028,
    "longitude": -99.3333,
    "timeZoneId": "America/Chicago"
  },
  {
    "code": "AXT",
    "name": "Akita",
    "cityCode": "AXT",
    "countryCode": "JP",
    "latitude": 39.6156,
    "longitude": 140.2186,
    "timeZoneId": "Asia/Tokyo"
  },
  {
    "code": "AXV",
    "name": "Wapakoneta Neil Armstrong",
    "cityCode": "AXV",
    "countryCode": "US",
    "latitude": 40.5667,
    "longitude": -84.1833,
    "timeZoneId": "America/New_York"
  },
  {
    "code": "AXX",
    "name": "Angel Fire",
    "cityCode": "AXX",
    "countryCode": "US",
    "latitude": 36.4167,
    "longitude": -105.2833,
    "timeZoneId": "America/Denver"
  },
  {
    "code": "AYA",
    "name": "Ayapel El Cebruno",
    "cityCode": "AYA",
    "countryCode": "CO",
    "latitude": 8.3,
    "longitude": -75.15,
    "timeZoneId": "America/Bogota"
  },
  {
    "code": "AYC",
    "name": "Ayacucho La Gloria",
    "cityCode": "AYC",
    "countryCode": "CO",
    "latitude": 8.6,
    "longitude": -73.6167,
    "timeZoneId": "America/Bogota"
  },